id,name,address,latitude,longitude,review_count,rating,zip_code
hdiuRS9sVZSMReZm4oV5SA,Da Andrea,35 W 13th St,40.736218,-73.99597,1823,4.5,10011
16ZnHpuaaBt92XWeJHCC5A,Olio e Più,3 Greenwich Ave,40.733798036104304,-73.99977392649927,4037,4.5,10014
VmdyRRMtUXOWV7F7w0ImwQ,Piccola Cucina Uptown,106 E 60th St,40.763174,-73.969046,283,4.5,10022
DoSU8IPq-Py_YV3kYmXPfQ,Trattoria Trecolori,254 West 47th St,40.759876,-73.986767,2607,4.0,10036
rp8S7scxOkVVeG7dNneMGQ,L'Artusi,228 W 10th St,40.73372,-74.00513,2237,4.5,10014
vjubSxmdG_HoBBgd39geBw,Nino's 46,39 W 46th St,40.7569046125342,-73.980516,1353,4.0,10036
OWNmOq-TAsHjGcYdCVclSw,Osteria La Baia,129 W 52nd St,40.76189587672743,-73.9806749,68,4.5,10019
OAqsZMbjv66nOMqlimnYuQ,Uva,1486 2nd Ave,40.77219299003591,-73.95561517222123,2702,4.0,10075
22nKUyCIbpnzR6R3_g1ptQ,Carmine's Italian Restaurant - Times Square,200 W 44th St,40.75749848725768,-73.98665333142026,4418,4.0,10036
raqwXUBlnc0e8c7CYmxEJQ,Scarpetta,88 Madison Ave,40.744509,-73.9856,2220,4.0,10016
h37t9rA06Sr4EetJjKrfzw,Don Angie,103 Greenwich Ave,40.73778,-74.00197,656,4.5,10014
V3USzFEGhuoXez4G2Rk11A,Tavola,488 9th Ave,40.755403,-73.994516,1234,4.0,10018
AUifp6IDKzmorCM6vY2fug,Pepe Giallo,195 10th Ave,40.7468940064083,-74.0049896784992,760,4.0,10011
BPo5XByMdNiXK_i--gqiRA,Duomo51,25 W 51st St,40.759979,-73.97824,14,4.5,10019
WG639VkTjmK5dzydd1BBJA,Rubirosa,235 Mulberry St,40.722766,-73.996233,2914,4.5,10012
5TX0X8w5ssIACU_pnBEq6g,Tony's Di Napoli,147 W 43rd St,40.75641,-73.98547,2487,4.0,10036
JLpEKUYAtzBRQwsUL3RPIA,Il Corso,54 W 55th St,40.762441,-73.977206,422,4.5,10019
562aZEpTDdYKDe5hWuDyFA,La Gioconda,226 E 53rd St,40.75716,-73.96833,194,4.0,10022
dc3hkLkAqCSxDWQzrx-g9A,Quality Italian,57 W 57th St,40.7644044527436,-73.9767805051616,1330,4.0,10019
TzVVPWK_4dhdSEpNqZwIhQ,Toscana 49,143 East 49 St,40.7556957079225,-73.9717184007168,326,4.0,10017
hkooeEkd3oPsLD6JJrYpjA,Café Luce,235 E 53rd St,40.757323,-73.967928,98,4.5,10022
LkV96_buOU_n0br4SBO57w,Ci Siamo,440 West 33rd St,40.75240549384363,-73.9982864846782,245,4.5,10001
LXdblKc5g1Dp17xiV-Am1w,Trattoria Dell'Arte,900 7th Ave,40.76545990643915,-73.98053136970677,1158,4.0,10019
26emJlm1YMFyOCezfgVk4g,Da Raffaele,883 First Ave,40.7535386913133,-73.9666010811925,218,4.5,10022
z7H9ApIGopnDnQaglnPTzg,Allora Ristorante,145 E 47th St,40.75433,-73.97277,753,4.5,10017
MOwB9YYd-Ko6nVgSB-ltQw,Briciola,370 W 51st St,40.7637997047278,-73.9880919456482,982,4.0,10019
TqNd-LKHuoYo1_mYwqiBFQ,Nonna Dora’s,606 2nd Ave,40.74440176159688,-73.97634764480043,63,4.5,10016
3qIISjUYn1tbqHXi7nCLXg,Sofia Wine Bar,242 E 50th St,40.75502,-73.96913,736,4.0,10022
OCTiJwvjoK81WoDwsTkFvA,Paesano of Mulberry Street,136 Mulberry St,40.718554,-73.997447,1336,4.0,10013
Q1_UvNyONsaVS_VC1mD9Dw,Osteria Cotta,513 Columbus Ave,40.78554,-73.97263,1032,4.0,10024
dIyKvfhjtm3NuKrMVVt0TA,Lucciola Italian Restaurant,621 Amsterdam Ave,40.790362,-73.972629,78,4.5,10024
GjEE8vvjqb7eeHA3BGNxAw,Barolo East,214 E 49th St,40.75481,-73.97059,247,4.5,10017
5F9kZPnAleDYqCeCyvGJPA,Bad Roman,10 Columbus Cir,40.768494,-73.983072,9,4.5,10019
8oO6j7AlnAbMSJs9Oj9GIw,Osteria Delbianco,22 East 49th St,40.7573689002,-73.9764462233,171,4.5,10017
Ve6GVzzJpR5QIIPdcn6ViQ,Mercato,352 W 39th St,40.75619,-73.9937,1026,4.0,10018
qBGKigOGn_flCx1apxPzlA,Piccola Cucina Osteria,196 Spring St,40.72506,-74.00322,758,4.5,10012
nBy8KtcUHktPFKw-VClG1A,La Pecora Bianca,950 2nd Ave,40.75495,-73.9682718,375,4.0,10022
yB4ziqFM_7V8JxJas7CHfA,Ulivo,4 W 28th St,40.7447371960713,-73.9880339428782,365,4.0,10001
zwOAiVT4pAmpNGXzj-t5MA,Lilia,567 Union Ave,40.71757,-73.95236,1115,4.0,11211
q3_FgDWWuXcVGiNuo_OPBQ,Fiaschetteria Pistoia,647 E 11th St,40.72666,-73.9773,246,4.0,10009
Zp-K3ztVTzR-LrWwl_CBgA,La Pecora Bianca,20 W 40th St,40.7525275894982,-73.9829860255122,181,4.0,10018
HiNUBUR1hFwScd_OvVLQAg,La Pecora Bianca,1133 Broadway,40.74358,-73.9892,1001,4.0,10010
mTWlEiCUEBlxBAkIikkB1A,Carmine's Italian Restaurant - Upper West Side,2450 Broadway,40.791077,-73.973763,1692,4.0,10024
Vs8kQ4R381y27AH018gLpg,Supper,156 E 2nd St,40.72290786539601,-73.98520720537888,1460,4.0,10009
zRXMvxUX_rOliKZPpkWi_g,Valerie,45 W 45th St between 5th & 6th Ave,40.756326,-73.981117,600,4.5,10036
k5fd-RSdG4IuXnnGSQ5oOw,San Marzano Pasta Fresca,117 Second Ave,40.727966,-73.988382,1492,4.0,10003
IAbOg5Kd5AynOcbI8vGTwQ,Aperitivo,14 E 60th St,40.76431314475945,-73.9717568,52,4.5,10022
IErfGS0DASSJfYU73m0Sqg,Malatesta Trattoria,649 Washington St,40.73285,-74.00847,1339,4.0,10014
HpxYBu1ARzOGvuUcLJe54g,Giardino 54,400 1/2 W 54th St,40.7660476,-73.987591,195,4.5,10019
vVVmHacu2YAxKfpIjhfd1g,Norma,438 3rd Ave,40.743553,-73.980026,595,4.5,10016
yQ7K4uFnxXxpBVbnOSR8kA,Polpette 71,71 West 71st St,40.77668,-73.97888,232,4.0,10023
ry0nAQiUn8bpNAruY_5wfw,Scalino,659 Manhattan Ave,40.7244699,-73.95151,298,4.5,11222
3FJjOq78eeqakDCsJHqJug,Sotto La Luna,34-39 31st St,40.75821891908545,-73.92818819919232,65,4.5,11106
jnHbdsqlTKlPcmJ8BCP9-g,Via Carota,51 Grove St,40.733148231901204,-74.00366777251583,838,4.0,10014
syNFp2qrQtXfH4bskQVgaA,Portale,126 W 18th St,40.74023348892918,-73.9962661,153,4.5,10011
a4WZUTKn90dOkeY38JHNjQ,Aurora,70 Grand St,40.715621,-73.964757,792,4.0,11249
jDIVPYpxQAk1HUAi0NIlQw,Pazza Notte,1375 Avenue Of The Americas,40.76348,-73.978091,997,4.0,10019
SCQ9B9jxqNHvJKQ-RagxaA,SPES,413 E 12th St,40.72979,-73.98274,29,4.5,10009
TWH4MjLtN1fKlF-7n6YXHg,Lil Frankie's,19 1st Ave,40.723625,-73.988555,1427,4.0,10003
0axnkZlDiQcJVc06DDXxGQ,Ristorante Il Melograno,501 W 51st St,40.7654289685161,-73.9914178848267,370,4.0,10019
7_hGsGEkHrjgAiYVjrCFnw,Carbone,181 Thompson St,40.728,-74.0001497,1554,4.0,10012
JwCnSW-RQ7_DxvbzWNO1hA,Coletta,365 3rd Ave,40.74094,-73.98139,166,4.5,10016
Z-QmxQZAJEy5GXqA82Bemw,Da Toscano,24 Minetta Ln,40.730508,-74.001238,99,4.5,10012
abZ-mEvF6Tj4hfyIg0lKwQ,Vite Vinosteria,31-05 34th St,40.7629734277725,-73.92119564116,680,4.5,11106
KCBfW6sWl9Gx-LvMff08jg,Osteria Morini,218 Lafayette St,40.7219179851303,-73.9976472073402,1272,4.0,10012
H5bhfR5sL0I2w1csjI1uMA,Piatto,1-50 50th Ave,40.7435117,-73.9590968,234,4.0,11101
32VbG_XgkZIuye0PV-BxaA,Zero Otto Nove,15 W 21st St,40.7407551035259,-73.9914887388588,528,4.0,10010
7cjT33LfYSk7vrRdEaSr4w,Angeletto Restaurant,890 2nd Ave,40.753188,-73.969365,291,4.5,10017
lgFApPVpbXnsIFw1CRJORw,Cellini Restaurant,65 E 54th St,40.760115,-73.972686,179,4.0,10022
lwfCl81r5a0mjxDNxNGC9w,Il Buco,47 Bond St,40.72583,-73.99299,779,4.0,10012
zg9Jrtx9rqTXeaqufSOxHQ,Masseria dei Vini,887 9th Ave,40.7684,-73.98558,518,4.0,10019
V-FCEicobl5Su-R7EVJQNA,La Lanterna Di Vittorio,129 MacDougal St,40.73069,-74.00015,1633,4.0,10012
zYaYXpmlo6QdnaPwuxWHhQ,L'Osteria,1219 Lexington Ave,40.77704,-73.95721,21,4.5,10028
NAlOPUbFQVE0bUu8_wmBLQ,Rezdôra,27 E 20th St,40.73901,-73.9891,572,4.0,10003
5k_jwjhdFMPUNWhouGNzuA,Misi,329 Kent Ave,40.71341,-73.96662,567,4.0,11249
pk89jzL1RsE9U0thf_z6tw,Locanda Verde,377 Greenwich St,40.7198601300801,-74.010039072422,1815,4.0,10013
hzPBADaUBQEL30MGrvKsww,Il Tinello Ristorante Italiano,16 W 56th St,40.76256,-73.97566,319,4.5,10019
rpVX-o82EEOX8ZDnM28a_Q,Bistango,145 E 50th St,40.75628,-73.97144,344,4.0,10022
yZJbealagfujEkgesAl2hA,Lupa,170 Thompson St,40.7276,-74.000045,1712,4.0,10012
wzHyRI6iW0rIY8rMb3KClA,Felice,240 Columbus Ave,40.77697,-73.97933,106,4.0,10023
rFeNJtqgMWf2tWy-RB6jgg,Torrisi,275 Mulberry St,40.7246154,-73.9952614,24,4.5,10012
QObHX0yR6zd0WfksRDbJTA,Becco,355 W 46th St,40.76083,-73.98981,3079,3.5,10036
5EQOEAkH2Qh3Rv1TcnE7yA,Fiaschetteria Pistoia,114 Christopher St,40.73316,-74.00537,115,4.0,10014
fFIQ8Rx4x1Z34kFJcmlVzQ,Cacio E Pepe,1479 York Ave,40.77090864674996,-73.95098168604862,60,4.5,10075
1ZKbUeFAs0ltSnAYq4ELKw,Trattoria L'incontro,21-76 31st St,40.77648209257472,-73.91059675544598,1092,4.5,11105
d15lwNLOlLSeaAYqPadntw,Sam's Place,132 E 39th St,40.749270880468,-73.977082744053,292,4.0,10016
rZ9OFoSqy8u4WECfh--ylg,Marta,29 E 29th St,40.7445882,-73.9847936,1000,4.0,10016
zo4JHfD2nWPUiqgsgDOaHQ,Rao's,455 E 114th St,40.79392,-73.93427,207,4.5,10029
RbiXVG4tzpC3zuILadyPIQ,La Pecora Bianca,359 Columbus Ave,40.78049101969648,-73.9763467,31,4.0,10024
C8Ctyq7pXOPESK8cz_X2CA,Pomodoro Rosso,229 Columbus Ave,40.776398,-73.979288,379,4.0,10023
yi6jIxzHo-nbAOG4KWuqcw,Maialino,30 E 30th St,40.7448869,-73.984231,1416,4.0,10016
B2X53VuOuLyXe0OsGY-ZzA,La Pecora Bianca,817 Washington St,40.73959,-74.00775,36,4.5,10014
5zcZZJhriNQ2R92r9drxug,Il Postino,133 E 61st St,40.76374,-73.96763,144,4.0,10065
l7OsDvMOO3ji3fg0nT0QzA,Tony's Di Napoli,1081 3rd Ave,40.764385574147596,-73.96426247506157,820,4.0,10065
z8TIY5xLeQptbXxZp3LpsA,Felice 56,15 W 56th St,40.762862,-73.975396,88,4.5,10019
CfYxlqO3W3PCE7hVhYJNyA,Il Gradino,808 Lexington Ave,40.76436,-73.96681,19,4.0,10065
T5dgMOv1iNY-z2ibeFQZgA,Il Monello,337 East 49th St,40.753779846700596,-73.9674672,6,5.0,10017
-Gc5sTFxoXM3Tiv_dkSJZg,Cecconi's Dumbo,55 Water St,40.7033063330116,-73.9916549604523,1015,3.5,11201
15k7iqFbhf4h8L01yggLqg,Song E Napule,146 W Houston St,40.72813,-74.00188,671,4.5,10012
b6jOwyX4iaagw8YjXqq1sA,Antonio's Trattoria,2370 Belmont Ave,40.854131,-73.886601,1009,4.5,10458
eMSTTuOUlKEnSOr8lPp3Xg,Ammazzacaffè,702 Grand St,40.7113172,-73.9446243,282,4.5,11211
OwDRIugcA4LkUuTRqpJsog,Naked Dog,47 Java St,40.7312720665479,-73.9593493647979,272,4.5,11222
faukkggAc_tuJ4THYlf4fg,La Masseria,235 W 48th St,40.760868632784,-73.986348802868,692,4.0,10036
K9Ur20N51Li3sAvaV9-6Ng,Casa Limone,20 East 49th St,40.7573268,-73.97666174194207,85,4.5,10017
riykDqJw_NPGssLgqCeD-Q,Aunt Jake's,1555 2nd Ave,40.774587,-73.954513,179,4.5,10028
xsQTIeq-WLkp4ParkTQpMQ,PizzArte,69 W 55th St,40.7629335072372,-73.9776668697596,1249,4.0,10019
FNxOWxts63oDRKwy9Pbfzw,Tarallucci E Vino - Nomad,44 E 28th St,40.74345604900017,-73.98470300895319,196,4.0,10016
9K0run3oObR0YT4jaOEvWg,L'Angeletto,327 2nd Ave,40.73541417,-73.982956,83,4.5,10003
ifIfq2EwEohCgoKnG68_LA,Villa Berulia,107 E 34th St,40.7467827,-73.9806507,192,4.5,10016
rJJiGJx3kfMAxtD7P7okHQ,Celeste Restaurant,502 Amsterdam Ave,40.78666,-73.97599,965,3.5,10024
J0OeDwmh5JBhid0A5GvltA,Il Corallo Trattoria,176 Prince St,40.7262073,-74.0018919,1113,4.0,10012
6Z5OWpaeGGazJHR4LfThsw,Palma,28 Cornelia St,40.73115,-74.00233,827,4.0,10014
iXV4FMZPru7BB_nwN_8mVw,Maiella,4610 Center Blvd,40.7471944,-73.9566640197964,1094,4.0,11109
hDj_0pbi4mFR5p1H1w6igw,Misirizzi,36 E 4th St,40.7272,-73.99228,189,4.5,10003
H_KyiRhwho8rdlw_R93_0Q,Marea,240 Central Park S,40.7674213694566,-73.9810554368179,2324,4.0,10019
Rc1Ay4C2BgLBouuM92SAtQ,Ferdi,15 7th Ave S,40.72995,-74.00449,22,4.5,10014
TZto7AjdA337XIw66AOpUw,Scalinatella Restaurant,201 E 61st St,40.7627823203802,-73.9654829353094,321,4.0,10065
vbGqzhH_exG5HOG1I23kvg,Park Side Restaurant,107-01 Corona Ave,40.743843,-73.856118,880,4.0,11368
4ixWiPyYysS2i8LAg4qzrQ,La Villetta,398 E 52nd St,40.7549171,-73.9650879,106,4.0,10022
6eqrk1wCQMww_ejze5gvsg,Forsythia,9 Stanton St,40.7225353,-73.992492,132,4.5,10002
goqTQ4tOD-asC_ZJBW9l7w,Patsy's Italian Restaurant,236 W 56th St,40.76553,-73.98274,1084,4.0,10019
lP4ynyBoeFPywLg78XkMmw,Cibo e Vino,2418 Broadway,40.79000179662657,-73.97485616653263,398,4.0,10024
aLM9irVFlNoVlS9dGuW_Lg,Amata,209 E 56th St,40.759426,-73.967063,94,4.0,10022
9T8Ootw4aqmaO42gI-wBSA,Botte UES,1606 1st Ave,40.775079766410514,-73.95047928303218,94,4.0,10028
oLg2HxLYChgvMRTK5ZSdKQ,Kurant,1091 2nd Ave,40.75971,-73.96521,243,4.0,10022
t-Pm38_XhMnGfOYgkhaNRA,Le Fanfare,1103 Manhattan Ave,40.736202,-73.955558,227,4.0,11222
tRIHhPKryUZ56SfIz6mLiA,Angelo's Coal Oven Pizzeria,117 W 57th St,40.76492,-73.97794,1125,4.0,10019
cyLw0vW5MrsF35-A6Dy03w,Saggio,829 W 181st St,40.8514099281625,-73.9395604556239,676,4.0,10033
hSpZSqElyjHTfE4lQJ97Cg,Mareluna,137 Sullivan St,40.726787,-74.001836,65,4.5,10012
YKLvheNuhQ3083AEgx0V2Q,Casa Soglia,365 Park Ave S,40.74215,-73.98472,2,5.0,10016
RXCCofQw1EjTcSN0ZeXfRA,Risotteria Melotti NYC,309 E 5th St,40.726673363853,-73.9880919456482,374,4.5,10003
RG5atiZtuNtpDu6GrNUQGw,NORMA Gastronomia Siciliana,801 9th Ave,40.76563298237293,-73.98769143895947,86,4.0,10019
a0IET3_yCFcO36OqGSsisg,Eataly NYC Flatiron,200 5th Ave,40.74200824886595,-73.98993910744127,6038,4.0,10010
yc4vsT-Q4Ej1_9hr94DxkQ,Sotto 13,140 W 13th St,40.7372,-73.99919,1032,4.0,10011
zjglOaCY8xQu3s2eKnLFzw,Mozzarella & Vino,33 W 54th St,40.76204,-73.97718,265,4.0,10019
d5ya04K-2A_hI3Xzqe1HeA,Caffe Buon Gusto,236 E 77th St,40.77249,-73.95713,663,4.0,10075
Tp3MF3DNXuW41A10PQ2nFw,Amali,115 E 60th St,40.7633557384716,-73.9686296877489,498,4.0,10022
ktMtLr8mp4K7IGxUgCTs6Q,Bocca di Bacco,635 9th Ave,40.76021745303923,-73.99156281784906,6,4.5,10036
oUVX94JtKyLPXozC2hemCg,Manetta's Ristorante,1076 Jackson Ave,40.7427,-73.95184,446,4.0,11101
C3E8CVVwzKtOv_sRR1WuRQ,Salumeria Rosi,283 Amsterdam Ave,40.77932,-73.9809,561,4.0,10023
HodL0fXoF08C3Ir-kLeTtw,Forma Pasta Factory,14 Bedford Ave,40.72371,-73.95157,513,4.5,11222
JOvcJqD5eCFrGjFa6k7vpQ,Zia Maria - Chelsea,318 W 23rd St,40.7454863,-73.9993392,306,4.0,10011
E48WbksxAk19a8vjJRVIVQ,Ramerino Italian Prime,16 E 39th St,40.75107,-73.98135,39,4.5,10016
MphfKkYFEe0BDQ6hZ0A5fA,Gelso & Grand,186 Grand St,40.71958,-73.99734,1366,4.5,10013
kMQ0IXs5mdjDeUvpWSHgRg,Il Mulino New York - Tribeca,361 Greenwich St,40.71904,-74.01016,50,4.0,10013
nSk_zCJESMKGLHyJTPPlZA,Bottino,246 10th Ave,40.74848569625031,-74.00331301292165,387,4.0,10001
NlmP5x_Ykznd55Dc85ChUg,Nittis,523 9th Ave,40.7567,-73.99411,307,4.5,10018
zDujEq9qZk13nBcG2PH4tA,Il Falco,21-50 44th Dr,40.7476595714373,-73.9455319123659,341,4.5,11101
kr5fRwdHtVwPPwSJxm9Fkg,Il Posto Accanto,190 E 2nd St,40.72238,-73.98403,299,4.0,10009
cl97uG2_QtiMBah-_s9w7g,Il Divo,1347 2nd Ave At E 71st St,40.76816,-73.959204,100,4.5,10021
pP4oS09iOB6qMaX3GkKSuQ,Avena UES,22 E 66th St,40.767957,-73.968759,38,4.0,10065
IxwuIDcpRa7EpQs7V481Ww,Il Gattopardo,13-15 W 54th St,40.7614994602915,-73.976308999227,225,4.0,10019
EDucGBSfQ0YIbxdHS-KnCg,Sagaponack,4 W 22nd St,40.741019,-73.990692,227,4.5,10010
HV8xairb2qct7wSHqNwqXw,Levante,26-21 Jackson Ave,40.74764,-73.94173,325,4.0,11101
5Akss-swwfyoSVeIsDBbvw,Basta Pasta,37 W 17th St,40.73881,-73.99407,1509,4.0,10011
LdWyeeV8DuYINKVTghFwrg,Canaletto Restaurant,208 E 60th St,40.76174,-73.96569,81,4.0,10022
XQKUqU1vPvgnapxmmBI55Q,Maestro Pasta,102 MacDougal St,40.72934,-74.00093,42,4.5,10012
J0SZjwe0Rc-H6mzl0oByxQ,Mimi's Italian Restaurant & Piano Bar,984 2nd Ave,40.75611,-73.96728,365,3.5,10022
RPP_wHhM8yZYIP5W-YHk6Q,Fumo,2791 Broadway,40.80285617298625,-73.968119,209,4.0,10025
tJxAlyeT5PRbUIyJ2wsv-A,Bamonte's,32 Withers St,40.71666591260819,-73.95125357171182,420,4.0,11211
vFsjObMTImsnM_DzVo4N3g,Bocca Cucina and Bar,39 E 19th St,40.73826,-73.98886,442,4.0,10003
qKfD10PsDKP_9B7O1_7oJQ,All'Antico Vinaio,729 8th Ave,40.7597,-73.98823,214,4.5,10036
JBthOvTegHbrLDiVaCAy5Q,Bigoi Venezia,1415 2nd Ave,40.770036,-73.9577755,334,4.5,10021
FRp1NwIyp6tkDU986cJkXQ,Piccola Cucina Estiatorio,75 Thompson St,40.7246,-74.0029799,243,4.5,10012
CFR-HzVHKWRMpMAR3LAhzg,Montesacro Pinseria Brooklyn,432 Union Ave,40.71338,-73.95136,226,4.5,11211
tLZfepIfSf0a80zHQTbTGQ,Trattoria Zero Otto Nove,2357 Arthur Ave,40.854779,-73.888474,862,4.0,10458
-hUvO0C0A-pGZdiSKvjoFw,Babbo,110 Waverly Pl,40.732283,-73.999284,2588,4.0,10011
15d_Y6TVOQFD2KRVkxuAjw,Baci & Abbracci,204 Grand St,40.7139015197754,-73.96044921875,347,4.0,11211
iQo5aJwTL_ZrXCdPFKq-RA,Isle of Capri,1028 3rd Ave,40.76283,-73.96602,280,4.0,10065
XHhRAKq6DArQXYhkgvwaow,Spaghetti Incident,231 Eldridge St,40.7223153441439,-73.9899454318763,646,4.0,10002
9iC39Z1YjZKbrrCANgzBXg,Sergimmo Salumeria,456 9th Ave,40.754296,-73.995498,719,4.0,10018
LfRiA6RORToZUSJUHkZBVA,Frankies 457 Spuntino,457 Court St,40.677328,-73.997972,884,4.0,11231
5pRxCYQppSq0czjFDN9X3Q,Campagnola Restaurant,1382 1st Ave,40.768817,-73.954833,315,4.0,10021
rJ9V5bMbP_e9ABaTkPjAbA,Coco Pazzeria,1078 First Ave.,40.7557292,-73.9645808,68,4.0,10022
WEhkGLKlj-5X1pq_07Syaw,Vesta,21-02 30th Ave,40.76961,-73.92776,750,4.5,11102
q8myw-sQtrmn0w-tKSC5cA,Cucina Alba,511 W 18th St,40.7451419,-74.0069681,40,4.0,10011
clOFor0bFSjse7EUfdRacg,Faro,436 Jefferson St,40.707407,-73.922839,325,4.0,11237
hyBM_Xk9Hzp38acTHAHlBQ,dell'anima,600 11th Ave,40.7661790467228,-73.99445587334046,683,4.0,10036
UQZmhaPAMdZabid6ccvhTg,IL Punto Ristorante,507 9th Ave,40.75614426678582,-73.9946186,444,4.5,10018
dh5r9-SbN8xJ76XvnayWLQ,Giano Restaurant,126 E 7th St,40.7262256596862,-73.9840574049125,695,4.5,10009
oRdM7n-AfBPBGAlH4Q0Sag,My Pie Pizzeria Romana,690 Lexington Ave,40.7608512,-73.9694809,893,4.5,10022
7Tu5l9UfWVi_v3m4TwJAxQ,Caffe dei Fiori,973 Lexington Ave,40.76935,-73.9627,87,4.5,10021
U91Lj5NUG42zweY_LKjKbQ,Fasano Restaurant New York,280 Park Ave Entrance On 49th St,40.75675458251292,-73.9755649,18,4.0,10017
h4VCnZ2aZ33mdenS_ZI7jQ,Mama Mia 44 SW,621 9th Ave,40.759761,-73.992065,823,4.0,10036
kQuTJxm0KAX1AsS46vhC_g,Barbuto,113 Horatio St,40.73885,-74.00932,80,4.0,10014
FKzpfWUpyupl4q74Jt8fTA,Don Antonio,309 W 50th St,40.762711,-73.986708,1631,4.0,10019
bEXTA_Gwo2oVg4gnFd9fNA,Ai Fiori,400 5th Ave,40.7500752,-73.9837835,1452,4.0,10018
3P8hb1ZOCA8IjEGfqpSpxg,Sfoglia Restaurant,1402 Lexington Ave,40.783535,-73.952719,313,4.0,10128
aJJlY5xvqS180wtRIHEWqA,Cotenna,21 Bedford St,40.72903,-74.00357,458,4.0,10014
aSprnLY-6GkMk1cuv0TMeA,Al Di La Trattoria,248 5th Ave,40.675332643247,-73.981340475038,955,4.0,11215
o2SAcKbfOMkA71xUfyee6Q,Rossini's,108 E 38th St,40.74921,-73.97883,260,4.0,10016
MeUq9lombxM9alxs64tejQ,Pepolino Restaurant,281 W Broadway,40.720756,-74.004885,617,4.0,10013
qYDoWRdntIApGW6fEUHWIQ,biricchino,260 W 29th St,40.7488743961,-73.9954839431414,164,4.0,10001
3n96VKiKG5Tte8z-U-TaLg,SoleLuna Restaurant,40-01 Queens Blvd,40.7439934462309,-73.9240421354771,480,4.5,11104
QUTSHrHw3qRZjf749VM1Yg,Serafina Italian Restaurant Osteria,38 E 58th St,40.76273,-73.97155,147,3.5,10022
YE4pvo8ectzEaRYGqUgFcA,Felice 64,1166 1st Ave,40.76256,-73.9596,391,4.0,10065
DGhWO1sUWydVeR5j5ZZaMw,La Grande Boucherie,145 W 53rd St,40.7626274,-73.98084109999999,2062,4.5,10019
KXhxtA_JDkCrujeyXvqsgQ,Canto,117 Perry St,40.73512,-74.00671,122,4.0,10014
-Td-YEPTOUq2H3LRWgRxUw,Non Solo Piada,302 W 37th St,40.75414,-73.99245,407,4.5,10018
f8TZ_ctcSwxwW8S69YKnwg,Il Bambino,34-08 31st Ave,40.76281,-73.92089,1305,4.5,11106
Sp-vnk-waTvKblG_88M4TA,Trapizzino,144 Orchard St,40.72043,-73.98894,289,4.5,10002
fH8DkdRerw5LJ7fZZHRfeA,Leuca,111 N 12th St,40.722121,-73.956678,420,4.0,11249
78TCGIG1eHMYdyvMpFdDbQ,Follia,179 3rd Ave,40.7349243164062,-73.9855880737305,276,4.0,10003
twHJyFgUSd7wzioKQjE7Jw,Galli,45 Mercer St,40.72161,-74.00127,1039,4.0,10013
B0qxEXABa8-t9sY4NQRRsQ,Fumo - Harlem,1600 Amsterdam Ave,40.821427,-73.950638,554,4.0,10031
Fit_iIDn__NPVZpVlKFBFQ,Osteria 106,53 W 106 St,40.79894,-73.96174,198,4.5,10025
vhqFa_0SG9M7Ra1OTmfB9A,LaRina Pastificio & Vino,387 Myrtle Ave,40.6933631896973,-73.9704132080078,217,4.0,11205
MH08_pIRKsUSwfkVYxUE7w,Vinatería,2211 Frederick Douglass Blvd,40.80668,-73.95395,599,4.0,10026
ePJlqiIhoVKIJW69IE53rg,Botte Brooklyn,327 Gold St,40.69446,-73.98316,44,4.5,11201
r2nIYBSyXny1-7XvsL2PVg,Lena's Italian Kitchen,551 2nd Ave,40.742664,-73.977783,324,4.5,10016
ZVa3-O6LMxZXSpKG0J1h-w,Piccolo Angolo Restaurant,621 Hudson St,40.7378601855952,-74.0058052539825,606,4.0,10014
f_1BjTChf6bobreSRpqhsw,Arco Cafe,886 Amsterdam Ave,40.7988462,-73.967065,340,4.5,10025
E2zKMwHhz4--dyplQ7gf8A,Pappardella,316 Columbus Ave,40.77940129780038,-73.97750031523518,717,3.5,10023
83zDAk03lFXkgImgkLhT9w,Chi Restaurant & Bar,492 9th Ave,40.75547,-73.99439,41,4.0,10018
EBK0OkVMBg_n_KxAU_4DZg,Double Zero,65 2nd Ave,40.7261288,-73.9896645,609,4.5,10003
fyC2cBsQ0FsMJmv0jSworg,Donna Margherita,1304 2nd Ave,40.76652,-73.9598,166,4.5,10065
77llOAEwInvK-oC2AHZ4nQ,Coppola's East,378 3rd Ave,40.74165,-73.98154,416,4.0,10016
zuB6VRXwj3QzTh9x-nQIRQ,Il Fiorista,17 W 26th St,40.744174968132405,-73.9895829,105,4.0,10010
dNFsMw-z3Vsa5TbJd9Q4Ew,Faces & Names,159 W 54th St,40.76351,-73.98098,410,4.0,10019
kvWSD8qHKugLcmDsNBMdfQ,Paola's Osteria,1246 Madison Ave,40.78318,-73.9573,70,3.5,10128
o5mMVFk4Hcpk2FuKfgTgdg,Malaparte,753 Washington St,40.73687,-74.00812,393,4.0,10014
IOHaEgK1zDvUvB3SfKuGCw,Parker & Quinn,64 W 39th St,40.752586217581296,-73.9850713153442,1593,4.0,10018
MPblH3J1kpbNGL4C4U7RAQ,IL Carino Restaurant,1710 2nd Ave,40.77945,-73.95019,119,4.0,10128
XfOa_KyrV7JSFJMOKckGMg,Monte's Trattoria,97 Macdougal St,40.72959,-74.0011,422,4.0,10012
ntQ7O1YPMIOrQkynhXRBVg,Manducatis,13-27 Jackson Ave,40.7445948529884,-73.9490695847509,162,4.0,11101
s5nPO911cYB2chdwqSqT9g,La Nonna Ristorante & Bar,184 Kent Ave,40.71848683628801,-73.96404187764361,409,4.0,11249
hVqZ4vihjL1gFTD-KdX-Tw,Gennaro,665 Amsterdam Ave,40.79178,-73.9718,422,3.5,10025
E1RvMNZ4re4TnKarjx14Zw,Cacio E Pepe,182 2nd Ave,40.73065490170433,-73.98593714531415,715,3.5,10003
Ry9w-jFALWYhazi6jjyIKw,Rucola,190 Dean St,40.68562,-73.98587,553,4.0,11217
kIm0oeOaVfC9-2flLPVklA,Patrizia's Pizza and Pasta,462-466 2nd Ave,40.7398415,-73.9792862,759,4.0,10016
gAMETn5mltwjn2QLt6bWjw,Isabella,110 St Marks Pl,40.726966,-73.984334,14,5.0,10009
-vBfKWJ1v9YdJQT5XUbcBQ,Le Botaniste,833 Lexington Ave,40.7649986274526,-73.9659830279587,455,4.5,10065
JSexQM-wn8HvWmfxu_m5ZA,Gnocco,337 E 10th St,40.72713,-73.9802799,567,4.0,10009
6n7D4amt9vEruR73tt3S9w,Cafe Fiorello,1900 Broadway,40.77175902009792,-73.98185582596686,909,3.5,10023
J38XGzriEkMsDfCMt6et_g,VEZZO NYCThinCrust Pizza,178 Lexington Ave,40.744435447210506,-73.9814189,1385,4.0,10016
F8RLZFoTxOO_GBPJNjz3kA,Mark's Off Madison,41 Madison Ave,40.742325,-73.986271,127,4.0,10010
xKIv_b2L2pUHmsoJ-xOepg,Gran Morsi,22 Warren St,40.714312,-74.007791,462,4.5,10007
M4pCWzdBCkp2g_d834a7Hw,Sauce,78 Rivington St,40.7204716,-73.9893263,920,4.0,10002
bW3mY-voyav37nU0uaLmNQ,Dante,79-81 Macdougal St,40.72879,-74.00165,588,4.0,10012
JyXn_GCGM2DsNYIzgzQrDw,Da Gennaro,129 Mulberry St,40.71832,-73.99794,1244,4.0,10013
5MpWHGQ6Qc-M4q1KL_nioA,Bar B,84 7th Ave,40.7395804,-73.999118,195,4.5,10011
7jG0JgpWs4APQRflhIyhhQ,Lena’s Italian Kitchen,1167 2nd Ave,40.76228,-73.963519,88,4.5,10065
Rc1lxc5lSKJYd162JHNMfQ,Bea,403 W 43rd St,40.7591968,-73.9923361,2810,4.0,10036
1AL6P_EC6Z3UPxqhfGFb3Q,Pasta by Hudson,180 7th Ave,40.7427486,-73.9969892,102,4.5,10011
4RhrQpbhjDmOyXT3qz7v2g,Osteria Carlina,455 Hudson St,40.731409,-74.006984,82,4.0,10014
uPe0efNw-uwPybeqccZ1zQ,Osteria Al Doge,142 W 44th St,40.75662,-73.9849,502,4.0,10036
eQdjZQaLnjItmn9suEEeIA,Patricia's,1082 Morris Park Ave,40.84912,-73.8533099,605,4.0,10461
BA0_zeBrnugK2l0HHp38mw,Via Della Pace,87 E 4th St,40.72646,-73.9898,566,4.0,10003
WIhm0W9197f_rRtDziq5qQ,Lombardi's Pizza,32 Spring St,40.7215934960083,-73.9955956044561,6531,4.0,10012
Yubu48l7he-qrNDSeAngbQ,Via Vai,31-09 23rd Ave,40.7741502,-73.9123089,242,4.0,11105
TsYrzVVtkKO4Asrk_L9stw,Parm - New York,235 Columbus Ave,40.7764333,-73.9794019,712,3.5,10023
e7jRn5TNlF84k7PuvJ1MOA,Manducatis Rustica,46-33 Vernon Blvd,40.7458575124991,-73.9528775638914,225,4.0,11101
2MuvmwOuwvGOWkBimhniLA,La Bellezza,145 E 49th St,40.7557792663574,-73.9720153808594,294,4.0,10017
pgtgGAAuHMT0KTm3CDPQsA,Sorellina,1036 Washington St,40.74977,-74.02746,358,3.5,07030
mPHPVJ2-8mOR-lFHafrc6w,Evelina,211 Dekalb Ave,40.689722,-73.971003,310,4.5,11205
WmK7GXwOnLSTRN1ocyUThg,Puglia Ristorante,189 Hester St,40.7181606872639,-73.9976975651144,619,4.0,10013
RfxOtJ4SQmEeVX_XjFLWUQ,Otis,18 Harrison Pl,40.706011,-73.932598,486,5.0,11206
hot1lIebdQNau05onRum7w,Otto Strada,743 Park Ave,40.7466038915745,-74.0311605558891,407,4.0,07030
l7Z0p-PkSwIDPLPY1TRl8A,Emilio's Ballato,55 E Houston St,40.7244923,-73.9944022,478,4.0,10012
Lesv5BG0_0-8bB49cAjMkg,Roberto's,603 Crescent Ave,40.85372,-73.88834,293,4.0,10458
06tnwnEQM2j9A6dC3HC_TQ,Capizzi,547 9th Ave,40.75744,-73.99357,887,4.0,10018
Dng_LID2JNnc6M6A1FB19Q,Come Prima Ristorante,903 Madison Ave,40.7721165011105,-73.965037390213,103,4.5,10021
xrTwutv3Y5I4lySFOaKa2A,Longo Bros,474 9th Ave,40.754825,-73.994862,69,4.0,10018
NGyFpNCrzqEG3B0Z0drKfw,Amarone Scarlatto,686 Ninth Ave West 47 Street,40.76171494384402,-73.9899636,57,4.0,10036
idxD3X7WfLFPZMoFnCRIQQ,Il Cantinori,32 E 10th St,40.7322779619352,-73.9929321762328,283,4.0,10003
Z67mgMkN3RfdPEX5mXsyYA,Piacere,351 Broome St,40.7196979,-73.9951175,711,4.0,10013
53ZNJNrT91VgvrI0LFjLNQ,Locanda Vini e Olii,129 Gates Ave,40.685007,-73.962943,335,4.0,11238
YoLxK5EG8UgnueKAe7hj0g,I Sodi,105 Christopher St,40.7334747314453,-74.005012512207,472,3.5,10014
MoyxzhaYIsJx-p9IuGGK4w,Stella 34 Trattoria,151 West 34th St,40.75049486336486,-73.98798861987918,731,3.5,10001
wLzJbddDixAEZrF7VT6_hw,Bono Trattoria,3658 Broadway,40.8301996389829,-73.9473449424522,353,4.5,10031
fuS39acPaRi38DhSSwEI4Q,Felice 15 Gold,15 Gold St,40.70789,-74.00712,440,4.0,10038
H5L18XZRHh_13HaeeHH_sQ,Casa Di Napoli,703 32nd St,40.773718,-74.0306062996387,149,4.5,07087
DCiEo7qucPaEj7Gtdj1U9A,Sant Ambroeus,1000 Madison Ave,40.77541,-73.96297,494,4.0,10021
VqxwHMcof6G5RIw45dMpGQ,Serafina Italian Restaurant In the Sky,400 West 42nd St,40.75845,-73.99308,22,3.5,10036
C3OlQ_y5LcgboyaKlpETYA,Trattoria Casa Di Isacco,536 9th Ave,40.75686,-73.99356,369,4.0,10018
X9f5HH4x3Mi7lo4ph9efvQ,Terre,341 5th Ave,40.671949831792,-73.9837719490146,157,4.5,11215
ysqgdbSrezXgVwER2kQWKA,Juliana's,19 Old Fulton St,40.70274718768062,-73.99343490196397,2605,4.5,11201
n_NIY1KTi-R5DPkduEUKIw,Ovest Pizzoteca by Luzzo's,513 W 27th St,40.7507476806641,-74.0030212402344,593,4.0,10001
VqnPcfqYltgxAkIuTaGkYg,Tre,173 Ludlow St,40.72184,-73.987714,519,4.0,10002
cp5k0PKl236X0xaNDYR5Zw,Feroce Ristorante,105 W 28th St,40.746403834819894,-73.9909495791506,84,4.0,10001
LSOpxBBa217HxnJ7VnY2WQ,Il Violino,180 Columbus Ave,40.775012,-73.980736,324,3.5,10023
urpBS_SwoSwonOtkwJ3i3A,AperiBar,120 W 41st St,40.75454487364027,-73.98568263216227,13,4.5,10036
QgClXDNikG0wRpIZ-Rcm7A,La Devozione,75 9th Ave,40.742463072401314,-74.0059581,51,3.5,10011
pC_QwLpeL2Enk4hBgDcRqQ,Da Marino,220 W 49th St,40.76102,-73.98526,655,4.0,10019
LRgB2kEKtBxqIxNksTO_PQ,Patrizia's - Williamsburg,35 Broadway,40.7109154314181,-73.9673637711639,793,4.0,11249
pTWFuMYed409y99N0zY05Q,Barbaresco Restaurant,843 Lexington Ave,40.76539,-73.96556,103,4.0,10065
rem9J_3x0urIH1vrFkEljA,Mamo USA,1170 Broadway,40.74511,-73.98862,5,4.5,10001
25npnVAlhRjguunYS8zy8w,Piccola Strada,77 E 4th St,40.72662,-73.99019,227,4.5,10003
LTi4_wcCVmqQeJ_jgTEbOQ,Emporio,231 Mott St,40.722647,-73.995246,863,4.0,10012
_N92SH1Zi-Hbxn_bNHFz0Q,Noodle Pudding,38 Henry St,40.69979,-73.99203,609,4.0,11201
Gc7OVEIs4HodL4hw9U3C3w,Copinette,891 1st Ave,40.75407,-73.96623,210,4.0,10022
UVQ1GxmhlDVDM2acLexJ7A,Roberto's II Ristorante,936 River Rd,40.826943,-73.973692,115,4.0,07020
gyWc5qJRvu26LVQIShdR4Q,Babbalucci,331 Lenox Ave,40.80894,-73.94496,465,4.0,10027
E5rmVdrCn-0uwD2M9nkXdw,Da Capo,1392 Madison Ave,40.7877696714384,-73.9538384601474,223,4.5,10029
WYhRkUATHRyXZrE55MArbA,Scalini Fedeli,165 Duane St,40.71741473500126,-74.00943235989747,350,4.5,10013
X8Hl9OezX-Yr9Jir3fsF7g,POSTO NYCThinCrust Pizza,310 2nd Ave,40.73483,-73.98282,660,4.0,10003
xbrQ2dHuQoFJmNxAuOky4A,Vic's,31 Great Jones St,40.72693,-73.99319,565,4.0,10012
uzEhT55QIdk9YbfFwmlRzQ,Altesi Ristorante,26 E 64th St,40.76667,-73.96959,84,4.0,10065
uPWyvfh5qSrVbujhjsDiiw,Oregano,102 Berry St,40.7190165,-73.9586248,493,4.0,11249
kLJfizeHMQqesp1K9mfUtg,Via Quadronno,25 E 73rd St,40.77277,-73.96514,607,4.0,10021
e6ic-qLMcaQLrAnHn2jgTw,La Pecora Bianca,54 Prince St,40.72347420863732,-73.9963118,179,4.0,10012
Ty1MvJz88DeNmX0eDHeMyQ,Pietro's,232 E 43rd St,40.7506055,-73.9721964,139,4.0,10017
e4L0hsq6Q96mV2nKQ9CgNQ,Tramonti Fifth Ave,2 W 28th St,40.74475,-73.98772,55,4.5,10001
CAGAWbPE8uPr2VVvEnv0ZA,Ribalta Pizza,48 E 12th St,40.7334346,-73.9916923,741,4.0,10003
GAvyDral555vltKrupUcjw,Osteria Laguna,209 E 42nd St,40.750656315963745,-73.97356620000002,397,3.5,10017
2Nwmd7-1d1rI6lb9QSSYYA,A Pasta Bar,330 W Broadway,40.72229,-74.00403,468,4.0,10013
REC_m1Y4caJIXz8DDdgh-A,Mels,85 10th Ave,40.74303,-74.00779,54,4.0,10011
y6V0XdpXbSoM4rHxLy5fwg,Vallata,47 E 19th St,40.738070676010935,-73.98858792703702,39,4.0,10003
WNOUPEZ6J8SZVSaK6Q3e-A,Porto By Antonio,8921 Old River Rd,40.8048834508642,-73.9934416639218,923,4.5,07047
00V7oJIc_wZKM2cjGrL1HQ,Bar Cicchetti by Fabio Viviani,113 W 24th St,40.743973307837564,-73.99300677914937,37,4.0,10011
JYNBy2r3LVhJbLHE1bASfg,The Smith,1900 Broadway,40.7716201269986,-73.9818377981476,2039,4.0,10023
ZmxEeE9m0CdpvM3wVRvonQ,Sicily Osteria,330 W 46th St,40.76019,-73.98918,67,4.0,10036
Ei5qjq0qmfNLkdVoO-S5Tw,Raffetto's,144 W Houston St,40.72816,-74.00172,249,4.5,10012
oV_B5pRkcICNab7_eVoIcA,Go Nonna,10-50 44th Dr,40.74831,-73.9499,147,4.5,11101
7ZecxKox2SiVtsNDWphJZQ,Limani,45 Rockerfeller Plz,40.7593809598193,-73.9778140767212,510,4.0,10111
6aVgixwks8EgirE1JtyDAQ,John's of 12th Street,302 E 12th St,40.730685,-73.985502,842,4.0,10003
vofTtCfw19YvmKS_7CgGIg,Figlia,23-02 31st St,40.774449102130426,-73.91320832247209,21,4.5,11105
HSKcCmRFqzqG542Hy_eftw,Siena Cafe,1580 3rd Ave,40.78073,-73.953,285,3.5,10128
B55Ocx5RBWxo6AGSucYSIA,Ilili,236 5th Ave,40.74435,-73.98778,2669,4.0,10001
EZNw56hywTm1PJNYOMbfHQ,Morso,420 E 59th St,40.758765,-73.960929,153,3.5,10022
FebvtuoXRQ8h8CZMe8NeYw,B'artusi,520 Hudson St,40.73401,-74.00607,29,4.0,10014
f8ipr8Wdy1_wHhw7JgNqPQ,Da Claudio,21 Ann St,40.71087,-74.00753,606,4.5,10038
1nQZbtmjODUgPm-QQdKrhA,Milk and Roses,35 Box St,40.737426,-73.955056,437,3.5,11222
QQpQujXQGbZBK6BeAokzDA,Pomp & Circumstance Dining,577 Lorimer St,40.714166,-73.949612,141,5.0,11211
FXYsBqMu2q1dhJYQg_FfAA,Rosemary’s,350 1st Ave,40.735097,-73.979074,205,4.0,10010
zzJA5P32V9MIHIMBIyasJw,Dante West Village,551 Hudson St,40.735202,-74.006251,182,4.0,10014
4bHtiA1md69LDag55kv8lg,Isabelle's Osteria,245 Park Ave S,40.737985,-73.987703,153,4.0,10003
1mp7uP6Kz_Zz4UClVfnjFQ,Testo,141 Leonard St,40.708337,-73.946965,231,4.5,11206
cGqMEMQFtkB3hIGfLy2R3A,Bar Pitti,268 Ave Of The Americas,40.729047,-74.002153,1209,3.5,10014
XzkmePjJC0ryuqZp5qd12A,Fresco By Scotto,34 E 52nd St,40.758896,-73.97444438329205,488,3.5,10022
vZ5-JXlJS75k8wmPNS5U5w,Max Soha Restaurant,1274 Amsterdam Ave,40.811324216443104,-73.9581736,433,4.0,10027
JliAIBARXi9uISzNG26DVw,Elio's,1621 2nd Ave,40.7767632368091,-73.9526632086427,296,3.5,10028
v1M1HIQBVwYatEF_iOmedw,ViceVersa,325 W 51st St,40.7635858415079,-73.9866799425418,292,4.0,10019
Xk3BVvlX-KXh6kJhbClMKw,Fine & Rare,9 E 37th St,40.7501754760742,-73.9821929931641,489,4.5,10016
scjoZtbTQHi35xhAlUm2iQ,L'ADRESSE,1065 Ave Of The Americas,40.753918142987104,-73.98531150211585,786,4.0,10018
-8_vEcBA2Lqd8786S-Ss-g,Novita Restaurant,102 E 22nd St,40.73918,-73.98629,425,4.0,10010
3uyBZNbDk2vRFBBWZOdIUA,Dominick's Restaurant,2335 Arthur Ave,40.85434,-73.889,413,4.0,10458
eWMuXtaBzf0H5u0Vf_zpjw,Ciccio,190 6th Ave,40.7263263267119,-74.0034471165676,307,4.5,10013
muX5xoh3aOleCrSja_T_FA,IL Tavolo di’ Palmisano,700 Clinton St,40.74571,-74.03346,205,4.0,07030
J9xVQScnr0lYWl61_mLXMA,Lido,2168 Frederick Douglass Blvd,40.8049797781916,-73.9548260014624,1164,4.0,10026
PYnN8fN8o0toVdLXl6z69A,Zillions Pizza,360 W 42nd St,40.758132,-73.99236,5,4.0,10036
ETgJqJHV7BW6pIr9Ox74sA,Amélie,22 W 8th St,40.7327,-73.99766,2893,4.5,10011
xB6tFNg-H3YXL1-CmXavhg,Cara Mia,225 E 116th St,40.79762,-73.93885,8,4.0,10029
qCf1QN11Qdncpqb7PhuyVw,The Rag Trader & Bo Peep Cocktail and Highball Store,70 W 36th St,40.75059,-73.98628,740,4.5,10018
qoc8jyoCBW4tw9zspA2K6Q,Jeannie's,225 W 57th St,40.7662427,-73.98124349999999,23,4.5,10019
F-eRrDik2KK0sNjpGiNbAg,Trattoria iL Gusto Wine Bar,625 Columbus Ave,40.78923,-73.9698499,74,3.5,10024
k1zrPPGGMQdlHopP3MnxrQ,Storico,170 Ctr Park W,40.779469,-73.973975,217,4.0,10024
T-RXDLq_VEv7s1_SooYIYQ,Osteria 57,57 W 10th St,40.73467,-73.99786,298,4.5,10011
rJfGgBleDYCVq2rkBr_w-Q,Barano,26 Broadway,40.710372,-73.96794,309,4.5,11249
vgg1dvDP-9tFWSacN4q0nA,Coppelia,207 W 14th St,40.7389111700125,-73.9999985153443,1499,4.0,10011
ZamvzoxEKiJEboO0ZUdogw,Amici Ristorante,165 Mulberry St,40.71981,-73.99722,175,4.5,10013
vRrVSB-LegwUwIxpkeRVtQ,Le Bernardin,155 W 51st St,40.761557,-73.981763,2829,4.5,10019
OmB4X44Ru8gjD6qgSNlXdg,Primola Restaurant,1226 2nd Ave,40.7638675,-73.9616489,157,3.5,10065
ZUrGqOG2cetGI-KKXk3c2g,Chazz Palminteri Italian Restaurant - New York,30 West 46th St,40.756473,-73.980563,335,4.0,10036
4WDHrSodF1Xidv9ezS6Sgg,Tuscany Steakhouse,117 W 58th St,40.76546,-73.97724,204,4.5,10019
A-ert0jDRBfku9ogyW_mEg,Spice Symphony,150 E 50th St,40.7558937072754,-73.9715347290039,630,4.5,10022
9mawr6QwVHm5q8JRXPFjPA,San Marino Ristorante,66 Charlton St,40.72697,-74.00611,200,4.5,10014
-KrQ1gOiyXCbffsWyc5SNQ,The Leopard at des Artistes,1 W 67th St,40.773515,-73.978841,273,4.0,10023
FhXjAc6nKLf414KxYujUHw,Roberta's,261 Moore St,40.70493,-73.93399,3237,4.0,11206
pP92FmGKpH5nQfaPXMfQAg,Mollusca,1 Little W 12th St,40.7396062,-74.005997,79,4.0,10014
IEb99GmOvg585gmwmm4iNA,Azalea Ristorante,224 W 51st St,40.76284953588084,-73.98522287224887,324,4.0,10019
gTEoEsssfbjl76Opf5bP9g,L'Amico NYC,849 6th Ave,40.7471761,-73.9898915,548,3.5,10001
4eGCuMwKRCCrYHOobEsFpA,Lusardi's,1494 2nd Ave,40.7724199,-73.9555,259,4.5,10075
S8OKQ5S40oZ1Rr5RbC0jdg,Motorino,349 E 12th St,40.73039,-73.98381,1115,4.0,10003
rupPZLhd0oRSAmVDaeYaGA,Bocca di Bacco Hell's Kitchen,836 9th Ave,40.7662168,-73.9867943,702,4.0,10019
nHMDOIX32dGbfpuNUwsLNQ,AlMar,111 Front St,40.702662,-73.989177,491,4.0,11201
c3D2ckzacnPtdGIM8tb-_w,B Side Pizza & Wine Bar,370 W 51st St,40.76388,-73.98821,1275,4.5,10019
0Tvwk0hvgaY0QVIsZGTZKQ,Antica Ristorante,8 Stone St,40.7039355145338,-74.0121731758117,545,4.5,10004
nM2AdRp2iSJHi4MgvIrEBg,Oak Tuscan Truffle Lounge,28 Greenwich Ave,40.735042,-74.00002,156,4.5,10011
FQ_9HzcX6_vLFnNIJ30jiA,Sant Ambroeus Brookfield,200 Vesey St,40.713713,-74.014797,77,4.0,10281
7AknGS1qVEyq_pHfmjkZtg,Wolf at Nordstrom NYC,225 W 57th St,40.766449907700014,-73.98159218717193,108,4.5,10019
-58--bg-KKUNArp18U4llA,da Umberto,107 W 17th St,40.7396659851074,-73.9958267211914,217,4.0,10011
Be1Y-vAEMgo7lqL5alXgDA,Taverna Di Bacco,175 Ludlow St,40.72191,-73.98768,327,4.5,10002
XlhWNQRGoWyybfXpGBgE3Q,Il Mulino New York - Uptown,37 E 60th St,40.764144,-73.970195,272,3.0,10021
vAMKgIUWCrYxjfhceCCNAQ,Sandro's,322 East 86th St,40.77740421779163,-73.9537163,101,4.0,10028
gqTikTCIS01E2m20PzHoDQ,Tarallucci e Vino - East Village,163 1st Ave,40.72901,-73.98469,302,4.0,10003
MTQpqHo-cCAPK7c9fd6zHw,Il Mattone,49 Beach St,40.720799,-74.0091255,108,4.5,10013
9W_dg9fvb-z8DBye2jfGiQ,Dazie's,39-41 Queens Blvd,40.744194,-73.924557,100,4.0,11104
Njr_f1J5Pve35OyPdBljVA,Convivium Osteria,68 5th Ave,40.68105,-73.97748,540,4.0,11217
19zArMBG2qW2k16Y0i2aBA,Obicà Mozzarella Bar Pizza e Cucina,928 Broadway,40.7400486,-73.9893018,508,3.5,10010
XyICIfSun7HWtBEUFux2PQ,Bocca Di Bacco,169 9th Ave,40.7445631,-74.0030779,237,3.5,10011
6AWiJUeP4FINQF48az-bkQ,Pasta Eater,9 E 17th St,40.73765,-73.99134,214,4.0,10003
ft2OPgLsquG9d7XrBLULng,ALIDORO - Bryant Park,18 E 39th St,40.75097,-73.98108,265,4.0,10016
MT_a_Tg3ENdxqZFQyJocgQ,Joanne Trattoria,70 W 68th St,40.774527071184984,-73.98030317398896,611,3.5,10023
UJe9_p6NEl0kA6xHVo5PKw,Amelie,566 Amsterdam Ave,40.78875,-73.97464,278,4.5,10024
CygcAgexrpJGY8iWp7QqnA,Antonucci Cafe,170 E 81st St,40.77574,-73.95689,178,4.0,10028
I0N_QtJy7sLiuW_vmvRIhg,Maruzzella,1483 1st Ave,40.77135,-73.95379,138,4.0,10075
NGzwDLroGL4JvG81BWliNw,Armondo's Italian Restaurant,7316 Northern Blvd,40.7545652,-73.8934414,77,4.5,11372
8nXo6lNJlXQQIdy8Kf7J9Q,Tessa,349 Amsterdam Ave,40.7814059,-73.97918,448,4.0,10024
foRWizWrQ32g6Vv4g9UTnA,Nocciola Ristorante,237 E 116th St,40.797525,-73.938393,263,4.0,10029
2_3W7NFFN3m4U_8ffgEuyQ,Cafe Spaghetti,126 Union St,40.68412,-74.0024,67,4.5,11231
KMiRIUS2gdukQRihHkPLmw,Viva cucina,85 2nd Ave,40.72676,-73.98923,29,4.0,10003
UpnHg_984LLZ28-kBB5MSQ,Bella Luna Restaurant,574 Columbus Ave,40.787762,-73.971458,338,3.5,10024
V0zC3awsklyxC0GFzmaTLg,Sfilatino Italian Gourmet,342 W 57th St,40.7675056,-73.9851073,221,4.0,10019
7zk4bUsLYR_Jw-Ol-3ao9A,Dragon's,Madsion Ave,40.7540943,-73.9783245,2,5.0,10173
vEYEs9McRtRdKBp2XfRNZA,Finestra Restaurant,1370 York Ave,40.76751,-73.95288,118,4.0,10021
rTzojTIarMjh_X7YPliySw,Zio Luigi,42-15 Queens Blvd,40.7438632,-73.9220898,153,4.5,11104
blaTQKod-nz94F3Fm_ZoYQ,Osteria Laura,1890 Adam Clayton Powell Jr Blvd,40.80251,-73.95355,51,4.5,10026
YmUKLOG4sTAShvyURuq2zw,Trattoria Bianca,481 8th Ave,40.752702,-73.993694,163,3.5,10001
iEUXrUUqGfUhpgYYSr5Zig,Da Nico Ristorante,164 Mulberry St,40.71963,-73.99691,984,4.0,10013
TUJutjq0LU6zexzM8Wia4w,Arthur & Sons NY Italian,38 8th Ave,40.73801,-74.00409,169,4.0,10014
xQ445GaWVN5Aa3sFX9OoIg,Buvette,42 Grove St,40.732704,-74.00434640955953,2083,4.0,10014
NG-vmMrBZlxAZrxgoiromg,TAPPO NYCThinCrust Pizza,49 W 24th St,40.74337,-73.99153,559,4.0,10010
y8XaPw0U9WzUj8MUaW6HmA,Mikey Pomodoro,230 Park Ave,40.754804468873886,-73.97603280212049,20,5.0,10169
iV5yy8EbjsPoYWtjRhB61Q,Nica Trattoria,354 E 84th St,40.7756431,-73.950783,156,4.0,10028
hpRrYBbKUqv8ewFKDjbjoA,Gersi,316 Court St,40.683438,-73.995711,341,4.5,11231
hFeGYPt9M5dd_KXG9a_ePQ,Patsy’s Pizzeria,206 E 60th St,40.76177,-73.96575,459,3.5,10022
-UvkD-dQiefHRl1SNOJywA,La Pecora Bianca,1562 2nd Ave,40.77477802702051,-73.95379483409555,20,4.0,10028
fU22eRTnKLT2C-OFJ6eUGQ,Saraghina Pizzeria,350 Lewis Ave,40.6837407,-73.9353473,1003,4.0,11233
Kh0-HmlgmVUkRxR55_Vn1g,Patsy's Pizzeria,2287 1st Ave,40.797157,-73.93488,928,4.0,10035
jku9Fg8JsUbv_LQzg6PK4g,Lavagna,545 E 5th St,40.72406,-73.98226,428,4.0,10009
PajKY49h4SpvSr-TW3lwCQ,Rafele Ristorante,29 7th Ave S,40.7309471231405,-74.0041171779098,528,4.0,10014
owZRGT6cxeHrpPxFuslMVw,Cozy Royale,434 Humboldt St,40.71693,-73.94295,53,4.5,11211
DtnlLLvcqeEUIyZTypHnzw,Il Mulino New York - Downtown,86 W 3rd St,40.729807,-73.999159,617,4.0,10012
pGr5QuQU7Ur5GHLvXbT8bw,Paulie Gee's,60 Greenpoint Ave,40.729546,-73.958568,1334,4.5,11222
C9BjYm4WyoQFPQUHmBErDg,Bird Dog,525 Hudson St,40.733983,-74.006549,151,4.5,10014
JU5d81TYm7IJHWqOqJWMqw,Have & Meyer,103 Havemeyer St,40.7132687751084,-73.9564743950496,193,4.0,11211
nTCFXqiQPTvDfnAxHfA64A,Trattoria Tra di Noi,622 East 187th St,40.85493,-73.8869,179,4.0,10458
7S8g0G_Ndc3DS-kqsozq8Q,83 1/2,345 E 83rd St,40.775354,-73.951216,224,4.0,10028
I0i9YzRBQn6MKIUFIHpeBQ,Park Italian Gourmet,60 W 45th St,40.7562054271632,-73.9814829826355,222,4.0,10036
QhRQE6nOMLd00kV2k-IsbQ,Augustinos kitchen and bar,1104 Washington St,40.75024,-74.02732,363,4.0,07030
UjzSeETESWzramhdOdWKKQ,Tartina,1034 Amsterdam Ave,40.8035073,-73.9636591,321,4.0,10025
uy9JPyjgthV64RCJN-EyAw,Harry Cipriani,781 5th Ave,40.76439,-73.97271,206,3.0,10022
OLa3-KQO9rHjswo55E3Jgg,Trattoria La Sorrentina,7831 Bergenline Ave,40.80174,-74.00698,647,4.5,07047
h2HPWsBX3ABNvLHbP3KzqA,La Stanza,334 B Lexington Ave,40.74969,-73.9775,51,4.0,10016
00kdvS6FY0gTN5BV03tx5Q,Peak,30 Hudson Yards,40.7541644,-74.0009082,364,4.5,10001
V7z1ZkTOtV-dNOKhZsAlMw,Patsy's Pizzeria,801 2nd Ave,40.750427,-73.972129,317,3.5,10017
WHQpLvxkCK_BMtF8pIShnQ,Carroll Place,157 Bleecker St,40.7287,-73.99971,1241,4.0,10012
fmdEiai0e4agyTEqFUWJmw,Amarone NY,686 9th Ave,40.7617199,-73.99002,344,4.0,10036
2F-7XCoPS1mbdy9ioqWuqw,Serafina,2737 Broadway,40.80043,-73.96828,123,3.5,10025
bxxP-1LQURlkom-geT2J8Q,Pastafina,635 2nd Ave,40.74528,-73.97574,3,3.5,10016
v8G2Tik6eXhS63Es_4sveA,Bacàn,79 Grand St,40.715855693840986,-73.96414879999999,32,4.0,11249
HbCyzokiA19bEWUp6mga_g,bibi,211 E 4th St,40.723937,-73.983519,215,4.5,10009
jzvHGkDUIQkcz8CZM_Je_g,Lupo Rosso,43-69 11th St,40.7503484,-73.9488625,30,4.5,11101
KL6AUMQI_Ae7_brkK0fy_w,La Vela Dining & Bar,558 11th Ave,40.761082,-73.997872,189,4.0,10036
6NqCJcJvYEdvjI2e0mH0Yw,Corto,507 Palisade Ave,40.74597,-74.04337,253,4.0,07307
ieoPAi6nbdEkrwv4vGVSwg,Via Trenta Osteria,3619 30th Ave,40.76491,-73.91654,520,3.5,11103
mkS--Oq4UYJMQizSaKJXEw,Enzos of Arthur Avenue,2339 Arthur Ave,40.854716697326715,-73.8887236,387,4.0,10458
VmgvCsAP6vZ3DL1mw8ugWQ,Osteria Del Porto,212 Front St,40.70737443140159,-74.00270427364536,53,4.5,10038
wOq-Jt26jnFf_rhF4r5D6w,Scampi,30 W 18th St,40.73902,-73.99358,333,4.0,10011
F89nDDlYZ7wbRe8EpLCqBw,Avra 48th Street,141 E 48th St,40.755048569901554,-73.97243859999999,999,4.0,10017
JP5DnHbYWBxGRjy9_16TdQ,Bosino,201 W 103rd St,40.798755,-73.9673646,67,4.5,10025
1XK53gaHMFQIA4VW3B6k1Q,Abaita,145 E 49th St,40.755541483222,-73.9718742367706,110,4.5,10017
DJSLGbSqCJ1W8ma3LFlMuw,Patzeria Perfect Pizza,231 W 46th St,40.759494511551836,-73.98673451962638,1784,4.0,10036
R-biStUvl2zuhIQFk40GsQ,OCabanon,245 W 29th St,40.7486725,-73.9945145,446,4.0,10001
6zxulornYzrZtafE6EgqUQ,Osteria Accademia,646 Amsterdam Ave,40.79125146299497,-73.97263216071319,15,4.0,10025
vGS5X12NYXCl8NpynlxRuw,Oscar Wilde,45 W 27th St,40.74514,-73.9900399,1121,4.0,10001
5ZEFbq_AQV5VQFG2JKYzlA,Giorgio's of Gramercy,27 E 21st St,40.7394209879325,-73.9885425567627,814,4.0,10010
uDJw4dQiySoNCBoUalW1Ww,Lincoln Ristorante,142 W 65th St,40.773384318631486,-73.98373135276117,595,4.0,10023
5CuYWr0-cE01HxlBu5Ka6g,Carne Mare,89 South St,40.70568649199326,-74.00218961453646,172,4.5,10038
g-q-kRxdn2zh2oWOY-jKTQ,Anfora,34 8th Ave,40.73789,-74.00408,198,4.0,10014
GnaeBuilZb_fU01v3wNhZw,Grimaldi's,411 Washington St,40.74131,-74.02953,454,4.0,07030
4K0doiBddco60kl0W04a3Q,Il Forno Hell's Kitchen,709  8th Ave,40.7591217147251,-73.988647715231,300,3.5,10036
b42PcC1nCP602fiXF0a9Xg,Barbalu Restaurant,225-227 Front St,40.7074747,-74.0020404,338,4.0,10038
01eI6pT0doZiu0nm-Gl7RA,Trattoria 35,213-15 35th Ave,40.76902,-73.77417,530,4.0,11361
k2sHdf6WeY22pK3hs6mtqA,Legasea Bar & Grill,485 7th Ave,40.75245723977984,-73.98936677488305,345,4.0,10018
kJExyhre8kocF5gI9y4IDA,Villanelle,15 E 12th St,40.73441,-73.99329,104,4.5,10003
hq09sqXaYiEogbTrrJ9X5g,Da Capo Columbus,322 Columbus Ave,40.77972,-73.97752,157,4.0,10023
uYHN9Vw3V1ajDGRnNDtbYw,Michael's of Brooklyn,2929 Ave R,40.6076329987397,-73.9428921973385,346,4.5,11229
u5zbsITgkFbAlRq0j-XE-g,Serafina Italian Restaurant Broadway,210 W 55th St,40.764415484123354,-73.9819469,696,3.0,10019
3D6UAhoKnF3A03rX_v5ngA,Bacaro,136 Division St,40.71456,-73.99154,423,4.0,10002
8PyKaU-YM0HOAfxWsjcwmg,Cipriani Le Specialita,120 E 42nd St,40.7516113,-73.9767134,115,4.0,10017
OWAfPuMnSqn7Ru1_RNH8fw,Aria Hell's Kitchen,369 51st St,40.7641145,-73.98814222665982,481,3.5,10019
eby9pE6FzmwjoYRVzDpzew,Sette Mezzo,969 Lexington Ave,40.7693455389848,-73.9627933502197,84,4.0,10021
YT5Ywu9y190B4IGIlBetzA,Morandi,211 Waverly Pl,40.73534,-74.00151,777,3.5,10014
G-b9kvnRh0pLi4fsdcmwjg,Joseph's Restaurant,3 Hanover Square,40.70499,-74.00961,90,4.0,10004
ZSDq6s2BFnvZEU4apxXbew,Di Palma Brothers Restaurant,8728 Kennedy Blvd,40.808952,-74.007419,143,4.0,07047
1CSsMjfgqWShayQBwNuoNg,Erbaluce,46 W 22nd St,40.741718,-73.992427,10,4.5,10010
-0vID-pN57SqpaYlmNYzXg,Pecoraro Latteria,636 Metropolitian Ave,40.714055,-73.947825,55,4.5,11211
vXYFa2qzppkGiOiVPrLwDQ,Don Peppe,135-58 Lefferts Blvd,40.6689814908178,-73.8216334221041,663,4.0,11420
f1A_dUs9FOIX6fl8DPQGgA,Macchina,110 Bedford Ave,40.72001988013028,-73.95553998649122,3,3.0,11249
A5MHd0GjEb4P86UsNzUnig,SESAMO - Italian Asian Restaurant Hell's Kitchen NYC,764 10th Ave,40.765726,-73.990678,288,4.0,10019
nVtJOWn3XlL6MSZ-YnU6iA,Da Francesco,442 Graham Ave,40.718353,-73.944677,141,4.0,11211
KEEXuHCYhsQJ-zpJhu98bA,Joe's Pizza,1435 Broadway,40.7547,-73.98696,1780,4.0,10018
YFvF4r2D-wJOgJAOvanaZQ,Gnoccheria By Luzzo's,234 E 4th St,40.723315,-73.983139,511,4.0,10009
zv29TbzPs9-rD5ql0qWw5A,The Shadmoor,1066 2nd Ave,40.75866,-73.9655499,428,4.0,10022
Jgaf3JmVaPokYB3ezbhjCQ,Caravaggio,23 E 74th St,40.7734565734863,-73.964729309082,142,3.5,10021
gu1gF8uZ_KvTzrL67hwH3g,Enzo Bruni La Pizza Gourmet,1827 2nd Ave,40.783433,-73.947932,98,4.5,10128
FpgzHQMSNTTjagrKXxOw5A,San Matteo Pizzeria e Cucina,1559 2nd Ave,40.7746799,-73.95443,388,3.5,10028
ssGhu4n3emZ9kEPVf371IQ,Cookshop,156 10th Ave,40.745731881448236,-74.00540454907613,2281,4.0,10011
dvkQIG20RjgNi-SwRr_1CQ,MAMO Restaurant,323 W Broadway,40.72186,-74.00382,338,4.0,10013
hq_lDiSnheYecX6H0hT7Fg,La Trattoria,844 2nd Ave,40.75161,-73.97069,90,3.0,10017
3FCxi2imtP_wMgsgsqIQOw,Bocca Di Bacco,635 9th Ave,40.76024707932667,-73.99165780170934,322,3.5,10036
MCnexHfsclcOpLHS4_2U0A,San Carlo Osteria Piemonte,90 Thompson St,40.72517,-74.00212,276,4.5,10012
MdFV5IBcX-Ni6I4Zy1EqIw,Marlow Bistro,1018 Amsterdam Ave,40.8028109023738,-73.9641991912535,346,4.0,10025
k4ds_s6y8S46WzVIolypLQ,Serena's Wine Bar,1268 2nd Ave,40.7652988,-73.9609017,159,4.0,10065
Jwb556DrGTEZryeV7XgZmQ,Bar Primi,325 Bowery,40.725639,-73.991714,763,3.5,10003
_KIjhnsaui-wF9OePRZ5NA,Gottino Enoteca e Salumeria,52 Greenwich Ave,40.7358,-74.00036,316,4.0,10011
zj8Lq1T8KIC5zwFief15jg,Prince Street Pizza,27 Prince St,40.72308755605564,-73.99453001177575,4777,4.5,10012
WYdrEMBXzOcxffpQczHKww,Ortomare Ristorante Pizzeria,994 Columbus Ave,40.80124,-73.96161,125,4.5,10025
q0hMNf-YhfDMFQyUQdsIJg,R40,47-16 Vernon Blvd,40.74501,-73.95363,188,4.5,11101
505bv6h3VnN6SekdHCr8Sw,Nocello,257 W 55th St,40.7654190063477,-73.9833374023438,202,4.0,10019
vYnQYMWk_CpV8APtyFWYWA,Patrizia's Of Maspeth,6935 Grand Ave,40.726783,-73.894276,258,4.0,11378
qLYloGaI-4OmLbNnr_wrGA,Castell Rooftop Lounge,260 W 40th St,40.75558,-73.99012,225,4.0,10018
gU6_qALmeWysg2YXMzMrtw,Serafina Fabulous Pizza,1022 Madison Ave,40.7762350782493,-73.9623423504256,407,3.0,10075
j6fSechU9HxzbnK-kjQx1Q,San Matteo Pizza and Espresso Bar,1739 2nd Ave,40.7804,-73.95012,552,4.0,10128
jol3Ay0RMCdJd0eSZdKOEQ,Beneci's,500 Harbor Blvd,40.758870842563404,-74.02360969020963,18,4.5,07086
VCaE8QSCAIThGbMq80nFYg,Harry's Table,235 Freedom Pl S,40.7730207,-73.9910077,47,3.0,10019
megxpLA5KciBJbW-jNm2RQ,Arno Ristorante,141 W 38th St,40.7534599,-73.98842,265,3.5,10018
1OZPOWZwJr-hpvMt6TD4ug,Milkflower,3412 31st Ave,40.7628961,-73.9207081,748,4.5,11106
iutTifH0Xy0UkN86vEvV2Q,Aria Wine Bar,14 Bedford St,40.7290058570751,-74.0033128150578,38,4.5,10014
vjj3MMPkULJUCv8xf3XRiA,San Matteo Takeaway,1731 2nd Ave,40.7801684,-73.9502899,163,4.0,10128
Uo7z3QSxLCxj8U44wtj2bA,Felice On Hudson,615 Hudson St,40.73784,-74.00582,16,4.5,10014
YqHszHxkqaC6azgrOsRO1Q,The Pasta Boss,149 Mulberry St,40.71904153293925,-73.9975553,12,4.5,10013
Z6WOPnG83sgn65SmeyGqAw,L'Artista Italian Kitchen & Bar,142 Hamilton Pl,40.824373,-73.948669,38,4.0,10031
8LQLe1jvyGwrkhVMMbA9Vw,Cara Mia Italian Trattoria,201 70th St,40.7935,-74.00573,14,4.5,07093
mlm40NxsVJUPnh3LTayaaw,Kimika,40 Kenmare St,40.720572,-73.995206,331,4.0,10012
ZFaIpks0AmQKdFvqYbj0QQ,Barbalu - Brooklyn,68 Bergen St,40.68675727907743,-73.99101547782092,53,4.5,11201
t3WXZ8U6espLzY5YQ1Ocsg,Cello Wine & Cocktail Bistro,226 E 53rd St,40.7570686,-73.9684187,209,4.0,10022
wV2YuZKjk5VhZz3I27xtsA,Monterey,37 E 50th St,40.75767029068569,-73.97455063884706,21,4.0,10022
q0HBfS9eJ9AeuaWQ3Ronqw,Joe G Pizza & Restaurant,244 W 56th St,40.76564,-73.9830099,166,4.0,10019
rbIrit8gZwfyEOdEOeX7jg,Orso,322 W 46th St,40.759994,-73.989025,197,4.0,10036
b2z0IifTb3zeuEbZ5fx7YQ,Spaghetti Tavern,425 Amsterdam Ave,40.783999644919156,-73.97748999443762,71,4.5,10024
yIFI6afTRP-tBhY6WsUOPg,Popina,127 Columbia St,40.687361962701,-74.0014251909241,88,4.5,11231
_Klr6rynJ4b_oc7ehRPoZA,Paul & Jimmy's,123 E 18th St,40.73682,-73.987251,139,4.0,10003
xeC9vn3dxVVzAMR_aFwfXg,IL Brigante,214 Front St,40.707492,-74.002571,490,4.0,10038
OFfZUS-nu6NDnsWe1B2bUQ,Tonchin,13 W 36th St,40.7502727,-73.9844951,1817,4.5,10018
ddyYKrNWkdc5mudrmLaTvA,Flora,1021 8th Ave,40.66458,-73.9800099,90,4.5,11215
3xOs6rJGDSi6T8f-XiTg7w,Serafina Cafe,58th St 7th Ave,40.76493,-73.98047,14,4.0,10019
zTK8reqKrmV7U71YVHYYjg,Armani Ristorante,717 5th Ave,40.7618463161798,-73.9742299834671,286,4.0,10022
oLA02lMIfgvbYquvXzkARw,Lillie's Victorian Establishment,249 W 49th St,40.7614625,-73.9860519,1577,4.0,10019
0SakkRuHhECsDsZ8mRkisQ,Triangolo Restaurant,96-01 Corona Ave,40.742337,-73.867305,523,4.5,11368
ipoJv9uuT3WgjeVozKUx8A,Fresh Basil's Trattoria,930 3rd Ave,40.759552,-73.968344,101,3.0,10022
C-8mGN7lt5rIraO5n-15ug,The Smith,956 2nd Ave,40.755165,-73.967868,3072,4.0,10022
Orbsfc3nI21mQ8cwSPahhg,The Four Horsemen,295 Grand St,40.71305,-73.95732,285,4.5,11211
0IwdwNnbro5RLLIlaxyfpQ,The Wilson NYC,132 W 27th St,40.74587,-73.99265,332,4.0,10001
afuiZyn9oOyyCpuW7wGfHQ,L'antica Pizzeria da Michele Taverna and Cafe,81 Greenwich Ave,40.737052,-74.001571,1,4.0,10014
EL5Y6BSinmUte5VW4Eh54Q,Frank,88 2nd Ave,40.7268483205383,-73.9887172038649,784,3.5,10003
VgIiCZoUnujSMZATByk77Q,The Meatball Shop - Hell's Kitchen,798 9th Ave,40.7651804928198,-73.9874866666706,493,4.0,10019
6gzQLjzJk25ePm_JS7ZAug,Esme,999 Manhattan Ave,40.73322607409529,-73.95492695812946,393,4.5,11222
MHbxF-ZS918-ZoXKQPBEyg,Sotto Le Stelle,4407 Queens Blvd,40.743656,-73.9201782,350,4.5,11104
-4PCSqieO2rJ4-htOh8v0w,Lexington Brass,517 Lexington Ave,40.7552634948238,-73.9729699790478,891,3.5,10017
Q9F2ocrmYuGt1yn3M7MOBw,Lucali,575 Henry St,40.681840746711224,-74.0003327,1938,4.0,11231
s1Epxy3pBMBxJH32snw17w,ALIDORO - The Hugh,601 Lexington Ave,40.75878,-73.97048,25,4.0,10022
dhKZRnt3DwfSu48OdPDdvA,Pasta Louise Cafe,803 8th Ave,40.666091,-73.9787254,238,4.5,11215
qgY41g_eg0eNzewCXmKcaA,Lillo Cucina Italiana,331 Henry St,40.69023,-73.99634,195,5.0,11201
r_fUOUhz-pHZxFDV1hzy0w,Peasant,194 Elizabeth St,40.72171,-73.99428,769,4.0,10012
q6ux26c-SfK-679y9lvVbw,Settepani,196 Lenox Ave,40.80435,-73.94766,276,3.5,10026
cpN0ixPR2l3QFA8Uf1BhCQ,Luna Rossa,347 E 85th St,40.776596,-73.950351,139,4.0,10028
dbCTJp9ENDVIquxBWONzWQ,Pomodoro,518 9th Ave,40.75624,-73.9939,138,4.0,10018
86StyWnuGaTuY6X2e3irOg,Alice Restaurant,126 W 13th St,40.73710696813969,-73.99863114881475,106,4.0,10011
qs5x7OfTtpgQ4xQeN7N4Iw,Saraghina Caffè,"195 DeKalb Ave, Brooklyn, NY 11205",40.6897188,-73.9719095,46,3.0,11205
sRH-6ZY0gDbS4DhfUZU6zw,Soda Club,155 Avenue B,40.726654,-73.979875,57,4.5,10009
GOEBF8Odq1SPdz4PWJx6PQ,Serafina Italian Restaurant Always,33 E 61st St,40.764789,-73.969779,391,3.0,10065
XsElXaLxUPKquI78poB8yw,Maison Pickle,2315 Broadway,40.7870473,-73.9781361,1596,4.0,10024
h8XLhVVPoYPYodZqQOjRMw,Robert,2 Columbus Cir,40.767394,-73.982036,1012,4.0,10019
Ntia3g3RhsV9g-yHWsS0og,Fontana Tritone,248 Fort Lee Rd,40.8618199,-73.9883783,69,4.5,07605
lA6IvTF7J8fNC5puhyS3PA,Bellini,483 Columbus Ave,40.78457,-73.97317,275,3.5,10024
sB8-R8-FYj-kJrSzTlbmgw,Coppola's West,206 W 79th St,40.7831637424309,-73.9789159423279,340,3.5,10024
WqjqHMozyW42XLTtLnKGag,La Pulperia Hell's Kitchen,623 9th Ave,40.7599217,-73.991841,870,4.0,10036
i6xP3ZfL78PXg2gjsOz-og,Noidue Carne,141 W 69th St,40.77625,-73.98146,57,4.0,10023
DI_FoHY84hfzTWwlzF76aw,Benito One,174 Mulberry St,40.7200188460948,-73.9969412164592,808,4.0,10013
-7PnG_cD9VY-IfHGWzynmQ,Ainslie,76 Ainslie St,40.712343,-73.952121,487,4.0,11211
Vm6_cXz8hbvZhot0m1aaRg,Italianissimo Ristorante,307 E 84th St,40.7765,-73.95197,145,4.0,10028
penftLPo6kx6qCtbsuyLog,Petaluma,1356 1st Ave,40.7682492,-73.9553474,262,3.5,10021
PnGSE8JGbMZKtdHi9go7Kg,The Milling Room,446 Columbus Ave,40.7835485472543,-73.9744088718635,546,4.0,10024
pL2tig3FxJcrZ4wDIO4TsA,Eataly NYC Downtown,101 Liberty St,40.709716,-74.011714,1188,3.5,10006
GVOjDvKHLoo21n3Uip1ETg,Leo's Grandevous,200 Grand St,40.73984,-74.036244,352,3.5,07030
DF7PV0DE9z0LM4ae6XYeYg,Harry's Italian,2 Gold St,40.707555318913,-74.006898168681,628,3.5,10038
rgk5Yg9_dESPrmrFWTIH0A,Biamo,178 W Houston St,40.72877,-74.00318,4,4.0,10014
wCj2FSi9o6iosMIMNIIZsA,Loreto Italian Kitchen & Bar,280 Ashland Pl,40.687037,-73.978577,94,4.5,11217
bjzBkF2FFMsdkCk50xseFQ,Etcetera Etcetera,352 W 44th St,40.75926,-73.99115,482,4.0,10036
pGP-wdfAsn-lcccqq4JPuw,Italian Trattoria IT,520 7th Ave,40.75369,-73.98881,1,5.0,10018
DE51ImtLSVPzNLikpOcocA,Vicolina,1302 Madison Ave,40.78497,-73.956,47,3.0,10128
OkfqS1xsv26xa7siRZZqbw,Gabriels Bar and Restaurant,40 Central Park S,40.76523,-73.97557,33,4.0,10019
4XX-zF8h5Lvrr22_tqU6-Q,The River Café,1 Water St,40.703866713051106,-73.99479360219303,1265,4.0,11201
qhyll2gPT-gGDRP6JGn1aQ,Bice Cucina - Midtown,62 W 55th St,40.7624702435463,-73.9768997892404,151,4.0,10019
syu8oCU9h3X9hfAE_lpADw,Terra Wine Bar,222 W Broadway,40.71928,-74.00647,420,3.5,10013
rOYVPZLrPjp5zUcAz1buKA,Pozzo Vivo,690 9th Ave,40.76182,-73.98994,4,4.5,10036
qnQG2OYczrvJ3hals7gCjA,One Fifth,1 5th Ave,40.731958617147676,-73.99622414955519,30,4.5,10003
FogLdooqSzKbmkwMGSwDiQ,Razza,275-277 Grove St,40.7177776,-74.0442612,1165,4.0,07302
JL_p-OHtSEYVfoeLQQgqDA,Casellula,401 W 52nd St,40.76499,-73.98835,951,4.0,10019
rPKXTHDgtGI4XEo2HuVpow,Mr. Jones Supper Club,22 Jones St,40.7317819,-74.0025704,64,5.0,10014
s9yeu2AneMTK4zRI96RzlQ,Margherita's,740 Washington St,40.74594,-74.02855,460,4.0,07030
TO9IICJjvcg1QhLVnap9fA,Cent'Anni,742 Franklin Ave,40.6730907423467,-73.9573492245369,507,3.5,11238
K9kL1ice5jlkPXcNyTus3Q,Pasta Lovers Trattoria,142 W 49th St,40.76003,-73.98291,478,3.5,10019
Cnqy9w1BFXZFEaChfox0ow,Rosemary's,18 Greenwich Ave,40.734863,-73.99974,1213,3.5,10011
p4TYRKQ82N5Ntb6RPdLPMg,Bruno's Ristorante,158-22A Crossbay Blvd,40.66006127265407,-73.84037893911108,303,4.5,11414
DZaN3bNWfwcm__sNw5bvDg,Daniel,60 E 65th St,40.7667736797858,-73.967607,1843,4.5,10065
_yMBdYh5p--WtF3n4a2iNw,Il Mulino Prime - Gramercy,43 E 20th St,40.73875,-73.9885,49,4.0,10003
y9y6V8va7yt_TUnoO68z0w,Trattoria Napoli,4525 Broadway,40.77794,-74.01825,166,4.5,07087
I6Wg1NFYAAVzM2OpsdqcXA,Grand Vin,500 Grand St,40.74331,-74.03517,531,4.0,07030
X97pE0LRWOng1q66kjAz1g,The Independent,147 W 40th St,40.754782,-73.987377,195,4.5,10018
9lDqOfKeEB15AWfsWIq8mA,Mario's Restaurant,2342 Arthur Ave,40.8542,-73.88857,320,4.0,10458
D3Qp546j-mH1TX-11q5uAA,Di Palo's,200 Grand St,40.7192766,-73.9965565,333,4.5,10013
NmzDoAerQUdvMNT90gk4Xw,Addictive NYC,19 West 46th St,40.75655,-73.97996,46,4.0,10036
s3jou_L_LVYGkNHiuhjlew,Boucherie West Village,99 7th Ave S,40.733063,-74.0028772,2204,4.5,10014
7Oq1UdUHUGZGH_QI6N-0LQ,Hearth,403 East 12th St,40.730006,-73.983225,787,4.0,10009
xzN2k19JXDYjOWAhNw62aw,Adoro Lei,287 Hudson St,40.725612,-74.007916,356,4.5,10013
ywP0OEqRC6sp4NK1-QhW-g,Parm,250 Vesey St,40.714473491420726,-74.01609333303082,414,3.0,10081
1tiHa-hrvPMBJ-Fk69YWPg,Concettina Restaurant,160-24 Willets Pt Blvd,40.7806912,-73.8017165,112,4.5,11357
EJOpdpy6QPTtmC7Fn04yHw,Patsy's Pizzeria,61 W 74th St,40.7785204,-73.9769718,575,3.5,10023
ZQrmos0TEPCmMHQUreYvpw,Caffe Taci,22 E 54th St,40.7603492736816,-73.9743194580078,17,4.5,10022
-0fjWWC2SY6kNxGfD8PKGg,Palermo Restaurant & Bar,2392 21st St,40.7769088448014,-73.9212289547099,291,4.5,11105
dsxgbkIKyu7x7JgpAKeZPA,Tarallucci E Vino - Upper West Side,475 Columbus Ave,40.78436,-73.9735,159,3.5,10024
wTaomJ5xoi-c7R_xKFmcpA,Positano Restaurant,10018 4th Ave,40.6127378,-74.0339271,514,4.0,11209
Aazjxg21VH2cncWYBAv68Q,Sottocasa Pizzeria,298 Atlantic Ave,40.688285,-73.989006,704,4.5,11201
JgtKnRMbUQKXaxC-C0BynQ,Il Baretto To Go,790 11th Ave,40.76860757932551,-73.99233994313758,46,4.5,10019
PQd4M3cuSgdweWgLgZIslQ,Inatteso Pizzabar,28 West St,40.7056571,-74.0172056,344,4.0,10004
C9mE4FfzF56wttmakkwcNQ,TALEA,61 Bergen St,40.68713792548407,-73.9908801,19,5.0,11201
pr_CLSHRCs2lWADPOKKxcw,Pasta Dal Cuore,527 Jersey Ave,40.7209453944042,-74.0465693799559,347,4.0,07302
8TUVNSsXhT8t8HzdA5ojOQ,Casa Mangia,50 West 57th St,40.7637279,-73.976629,2,5.0,10019
ezu7Ai6ADfHDYCklvuipWA,Arturo's,1617 York Ave,40.775478,-73.947847,97,4.0,10028
rtivWWzG0XjUuhSrwusTgQ,Fausto,348 Flatbush Ave,40.67597,-73.97181,202,4.0,11238
EEPyJJFSDNDHFbLMhbDjNg,Peperino NYC Pizza,21 West End Ave,40.77275912931571,-73.99077586611165,102,4.0,10023
wA_KKu3X36JcaUPgFjyIHg,Glasserie,95 Commercial St,40.73773690064076,-73.95617606103727,420,4.0,11222
xEdAaZTNNHRZbvzBuSjcCg,House of Lasagna,334 Lexington Ave,40.7497237,-73.9775697,185,3.5,10016
sZZtK7rro9PK0fBH6L36Eg,Sagra Pizza Bar,62 Carmine St,40.72969,-74.00412,130,4.0,10014
x6_1vzeCH9YvbvIBmSr2iA,DOC Wine Bar,83 N 7th St,40.71966,-73.96046,258,4.0,11249
eVk4F9ixl89zyUHJ1G2Aiw,Luzzos La Pizza Napoletana,15 Avenue B,40.721836749997586,-73.98329136062472,1087,4.0,10009
ZlwjT-jygnYqM5qDE0CuLQ,Gigino Trattoria,323 Greenwich St,40.71726,-74.01055,269,3.5,10013
QPEzLkO35OTYijFhs8d7-w,The Reading Room,16 E 46th St,40.7555,-73.97802,43,5.0,10017
XVMzBs7wGeU5BWgyBL3xyQ,Ardesia Wine Bar,510 W 52nd St,40.7660831005947,-73.9914581179619,405,4.0,10019
U2lfZtPmI3x-bpFztPFbkA,Claud,90 E 10th St,40.73088,-73.98968,52,4.0,10003
b-VbRreVGS9HQLwhYol5Xw,Don Filippo Restaurant,1133 Lexington Ave,40.774562,-73.958892,191,4.0,10021
wve8fP5lc3jyfhMI7uu4yw,The Mermaid Inn - Chelsea,227 10th Ave,40.74813167,-74.00410833,80,4.5,10011
j7K-Pevawo8PN3r0WyEE_g,Macoletta,28-15 24th Ave,40.7732423,-73.9164153,204,4.5,11102
nw85LVh6H3JIiw3ugvhAmw,Lasagna Chelsea Restaurant,196 8th Ave,40.7432418,-73.99970359599844,596,3.5,10011
WHX90qTIuHdWHWDY5g9COw,Apulia,1319 Washington St,40.75297,-74.02582,167,4.0,07030
0rtVm7f20mdRfllWCAjuag,Pisillo Italian Panini - Chelsea,124 W 25th St,40.74446,-73.993059,147,5.0,10001
HcO6Axp1p4udN9jhUerGXg,Spritz,30 W 30th St,40.74651424113382,-73.98800203612996,64,3.5,10001
01DAquyaFe54cYXT0SQYhA,Giovanni Venti Cinque,25 E 83rd St,40.7791457515481,-73.9602393558197,80,3.0,10028
NZaq_ygLr4N8-blY5dGx-g,Paul's On Times Square,136 W 42nd St,40.75522,-73.98539,341,4.0,10036
KEgdfVEVVgJFnGFiLNPDzQ,Sofia Pizza Shoppe,989 1st Ave,40.75674,-73.96431,242,4.5,10022
DynFEEWtMX76qeqviUbOdA,Mille Nonne,88 Essex St,40.717949,-73.988181,53,4.5,10002
KgxzEspPDlfZ-6_HX70mfg,Ninos Aq,35-01 Ditmars Blvd,40.774944,-73.908585,228,4.0,11105
vfYhEpp0x-DrNjC6GSJjPQ,Artichoke Basille's Pizza,321 E 14th St,40.7321124557704,-73.9839056828882,4168,4.0,10003
Xu8H24NxJJxEE-9wGp_AMA,The Brazen Tavern,356 W 44th St,40.7593269348145,-73.9913101196289,424,4.5,10036
pXx19tcFyVSnPU5moTnvzg,Acerra Brick Oven Pizza,142 W 49th St Ph A,40.759907,-73.983009,3,4.5,10019
XvEz60Y0NbLxooK9AmRU8g,Piccoli Trattoria,522 6th Ave,40.66518210863434,-73.98653954110445,562,4.5,11215
HuU2IGPfQ23FTOGDQg0Ieg,Four Five Six,199 Richardson St,40.719181,-73.943149,76,4.5,11222
nCH7SR7qXu0asO1GU3iqHw,The Press Lounge,653 11th Ave,40.76452,-73.99586,1170,4.0,10036
-tQ9Zlb5d9PPlDz_6UgV7w,Antica Pesa,115 Berry St,40.71884,-73.95865,432,3.5,11249
vmUNPvduTeWu24d--TbHAg,Ops,346 Himrod St,40.70276,-73.9171,184,4.5,11237
mOoZZa6WIsgihc_TqyQcXw,Tarallucci E Vino -Union Square,15 E 18th St,40.7381367771909,-73.9907283558044,411,3.5,10003
i5cdbiw1KRyg4w0X44ZBwA,Mezzaluna,1295 3rd Ave,40.771125,-73.959251,165,3.5,10021
b-7g6DATLzd-3sNz8wVuIw,Cicci Di Carne,398 10th Ave D,40.7536552,-73.9996342,5,5.0,10001
7cOibAFiGbSsSWo27SLIgw,Tutto A Modo Mio,482 Bergen Blvd,40.8244151,-73.9972534,385,4.0,07657
_V7YsDQ4Lb41rqfkuPzm1w,Trattoria Pesce Pasta,262 Bleecker St,40.73115,-74.00319,289,4.0,10014
m3PS0tIaa0ChcP8Y5S-DrQ,MAMA'S TOO!,2750 Broadway,40.80084,-73.96766,617,3.5,10025
xUqgjIiXNWcjsD21caYs8w,Rasco’s,4 Main St,40.8037284,-73.991825,105,4.5,07020
T_vLaKsuyJPDpsrSZuc7WA,Battello,502 Washington Blvd,40.725357,-74.032278,719,3.5,07310
_eImQkZt0MlQ0jLZH2LrTQ,GP's Restaurant,24 69th St,40.79126,-74.00167,156,4.5,07093
ndd1BQLqFINytM4kbkCjgQ,La Bergamote,515 W 52nd St,40.7663868,-73.9915846,413,4.0,10019
elPjOCDb8WmOpaQEI-AAOw,Forno Siciliano,43-19 Ditmars Blvd,40.7711294255972,-73.9031770938873,103,4.0,11105
Irw7QQBsndbB2ATXeB4pYA,Da Tommaso,903 8th Ave,40.7646068,-73.9845812,222,3.5,10019
dm_QxI_oJBeDLHYabbyftw,Kwik Pasta,45TH And 6th,40.7567683358682,-73.9827102366374,2,4.5,10036
CYYLEipRFmr73Hz6XNEzoQ,Little Italy Pizza,55 W 45th St,40.756482,-73.981484,599,4.0,10036
D0LsGudLqLabXbhEPMkw6A,Aumm Aumm Pizzeria & Wine Bar,7701 Broadway,40.79789,-74.00231,395,4.5,07047
Li4N7-v4a7cXV5TT1OFOWw,Luchini Italian,39 E 58th St,40.7629313,-73.9714374,19,4.0,10022
mWS4umRg2AyykyAClMrIRw,The Penrose,1590 2nd Ave,40.775427,-73.953115,1417,4.0,10028
KW5ScWQd16gJ9yLf4pKDvQ,Fatta Mano,8501 3rd Ave,40.62417475787952,-74.0305181171787,34,4.0,11209
tsK6f3xyjfLTM7xtD1ZY-A,Neapolitan Express,2109 Broadway,40.77991,-73.9818,6,4.5,10023
fowyb5DnUydqFodInCQyQQ,Centro Pizza Bar & Italian Kitchen,47-23 Vernon Blvd,40.74494463643489,-73.95312334111576,206,4.0,11101
sDajjybHSYFw8gTVbknPGA,Jack Doyle's Bar & Restaurant,240 W 35th St,40.752132,-73.991852,368,4.0,10001
26E3j9l0XW_onVIUP-ThCw,Heidi's House By The Side Of The Road,308 E 78th St,40.772189,-73.955029,652,4.5,10075
y_tRUBOu3qg7lkaO2Xk1hQ,Frost Restaurant,193 Frost St,40.7183945,-73.9434941,191,4.0,11211
eTR6nfHvQzvKX7Dcd6JrfA,District Social,252 W 37th St,40.7535743713379,-73.9914321899414,725,4.0,10018
AKE0PMDuroeqCf3ZyPYDfQ,Little Italy Pizza,671 8th Ave,40.7576385630105,-73.98970998823643,2,4.5,10036
nRO136GRieGtxz18uD61DA,Eleven Madison Park,11 Madison Ave,40.7416907417333,-73.9872074872255,2374,4.5,10010
7EAj8VJX_DoKlZdCJBE4Pg,La Bella Vita,163 Mulberry St,40.719816,-73.997403,469,4.0,10013
Gzwpeu4rw8T-XDYCllegxQ,Nello,696 Madison Ave,40.765797,-73.970076,412,2.0,10065
BgGz5IdV53bGb4o7opR5zg,Arturo's,106 W Houston St,40.7273563342024,-74.0004944801331,765,4.0,10012
Lw58gDv9ipwtOcg2EIJp3w,Napoli Pizza & Pasta,33-02 35th Ave,40.75718,-73.92686,346,4.0,11106
TfYOx6Ql-wWdjGpgVaNcpQ,De Novo Edgewater,1257 River Rd,40.8268814086914,-73.973518371582,300,4.0,07020
YuzOnNDfRKixNJiaVy5Baw,Roberta's Pizza,230 Park Ave,40.754393,-73.976103,248,4.0,10169
ehUuSk5gPTCQmwS_ubgKRA,Upstate Craft Beer & Oyster Bar,95 1st Ave,40.726373,-73.986557,2051,4.5,10003
rwVYlc3axjEZKEk9nkj1Fg,Honey's,93 Scott Ave,40.7104296,-73.9231562,58,4.0,11237
8NrrPoJKOQQFTMrkMzGILw,Upside Pizza,20 E 40th St,40.75157,-73.98059,45,4.0,10016
h1_zWY2PVTZ5ul0RuiJ59g,Motorino,510 Columbus Ave,40.7855672,-73.9730817,282,3.5,10024
Bx9ufqCtxxdl2l6pT3J45g,Petrossian Boutique & Cafe,911 7th Ave,40.766026225434,-73.97945224279856,366,4.0,10019
St8a2de1vfyCxwIySBUWbA,Graziella's,232 Vanderbilt Ave,40.6904563903809,-73.9696273803711,490,4.0,11205
gJg_Gh2lqrCprDzR6ZP9QQ,314 Pizza Pasta & Cocktail Bar,3143 Broadway,40.8141969,-73.9598383,132,4.5,10027
3Ic4C60oSH1cV2jknUXSjQ,The Flatiron Room,37 W 26th St,40.74452,-73.99049,993,4.5,10010
Z22s9SoQOndAey4_SULrvA,Mediterraneo Restaurant,1260 2nd Ave,40.7649733,-73.9609846,361,3.0,10065
ZIlCi38S2pcWuHlpMxvG7w,Montebello Ristorante Italiano,120 E 56th St,40.760504,-73.970625,97,3.5,10022
-_4i_FQ1Tt_aMU904O82Ow,Crompton Ale House,159 W 26th St,40.7459087,-73.9937093,247,4.0,10001
rhCs1nF5KTNwx-4YeyoK3g,Bartolino's Fine Italian Pizza,3411 Broadway,40.7607386113415,-73.9223789038732,54,4.0,11106
bkIMbvXOcztDVz8bpyhMzQ,The Dead Poet,450 Amsterdam Ave,40.78499,-73.97735,471,4.0,10024
cRmRAl5HHJcysKBSrHivHA,Lamano Chelsea,265 W 20th St,40.7433797337789,-73.9994259551167,120,4.0,10011
74zaTegd7fnS6llTesn_Dg,Fragole Ristorante,394 Court St,40.68087,-73.99688,414,4.5,11231
j69WHdRCVQTypfe7hQWauw,Brasserie Cognac East,963 Lexington Ave,40.76911811325526,-73.96291345561302,150,3.5,10021
nKpHJSu7xbGyerOjfLRzfA,Gotan - Tribeca,130 Franklin St,40.719255,-74.006607,431,4.0,10013
or0Op4EDk95L0vhLwSATcQ,Montagu's Gusto,645 2nd Ave,40.74571,-73.97553,166,4.0,10016
TN1dGAwvNevkzXfL0sU41A,BLVD Wine Bar,4720 Center Blvd,40.74596,-73.9575,178,4.0,11109
ZEhQhJIzWHk28DCG7TvrxQ,Previti Pasta & Pizza,341 Lexington Ave,40.749683,-73.976953,27,4.0,10016
nvTE9vtXCoYvF9-l6PZMVw,Uva Next Door,1484 2nd Ave,40.77223189920225,-73.95566751924939,70,4.0,10075
P2CTp4xyaNCe2AXSiLeOSQ,The Odeon,145 W Broadway,40.71692,-74.00792,744,4.0,10013
-KKgqE2g4c1cH4YmmDR9CQ,Bernie's,332 Driggs Ave,40.721936,-73.950597,108,4.5,11222
gjZpcE-X4zQOEqWQPelLgg,Max,134 W Broadway,40.71688,-74.00835,475,3.5,10013
x61Sizu7lqGPMGuKEGHo-Q,Senso Unico,43-04 47th Ave,40.7414137015591,-73.9216857927781,94,4.5,11104
gL4V5DN3yH45hbXqvy8-9g,Pizza By Certé,20 West 55th St,40.7619979368852,-73.9761684,457,4.0,10019
v1DHGRNCH9247WLYoaoA9A,L'industrie Pizzeria,254 S 2nd St,40.71162,-73.95783,887,4.5,11211
DKLbMLQHvggfIKw2jj6rnA,Felice 83,1593 1st Ave,40.775049,-73.951078,315,3.5,10028
NBeQAgTo9hlJxgp9xbMO-w,Tufino Pizzeria Napoletana,36-08 Ditmars Blvd,40.773986,-73.908126,453,4.0,11105
wtfEOjfOWVuugf-SuCC5yA,Avra Madison,14 E 60th St,40.7643,-73.971721,426,4.0,10022
h9rymMeMUMOxQ9d93U0YDg,Baker & Co,259 Bleecker St,40.7313423,-74.0028996,713,4.0,10014
pIyhj8qxJNInsVa53KUB1g,Casa D' Angelo,146 Mulberry St,40.71891,-73.99738,34,4.0,10013
8-Ug0Zjs5sL6MARspRJ7CA,Bond 45,221 W 46th St,40.7591637016814,-73.9859788257256,871,3.5,10036
diCW3Pj1PTVRSyol_d7cZw,Chef's Table at Brooklyn Fare,431 W 37th St,40.7561930774282,-73.9966090932068,640,4.5,10018
AYBRN8pKB8_ZfcCks17OmQ,Beebe's,38-28 27th St,40.754827,-73.935918,165,4.0,11101
1LIptXhtDh58vAA-QPFL4w,Cask,167 E 33rd St,40.745414,-73.979004,1461,4.0,10016
9fydXI0fj2s-EmlF7vm8Og,Clay,553 Manhattan Ave,40.8094002234406,-73.9536950700793,182,4.0,10027
bpPg_ILwgxHd_fqGQhmtRw,La Bella Pizza,373 3rd Ave,32.63852572835588,-117.07864356362701,984,3.5,91910
7KtUcXF28tDEv8CBbgWNJw,Bar Felice,1591 1st Ave,40.7748027,-73.95113,33,4.0,10028
YaHf6hp0jhSKG2t7LLmfJg,San Giuseppe,1320 Adams St,40.754055,-74.032892,336,4.0,07030
HD0e3eHwv573qHZOJJitWg,Aurora Soho,510 Broome St,40.723543,-74.003199,528,4.0,10013
vegSCksJy6SI8WUGttLH-w,Fradei Bistro,99 South Portland Ave,40.686579,-73.974191,65,4.0,11217
5gcrlif2enGxj7eKAoz-5g,Terravita,4193 Broadway,40.84807,-73.93803,324,4.5,10033
u_Cn0KcNrjzun774_dH2cw,Caffe Milano Restaurant,2117 State Rt 4,40.86019,-73.97685,8,5.0,07024
aSflr1OB8i4cvd0jzMJfig,Brooklyn Roots Italian,8620 3rd Ave,40.622950474895696,-74.03151550202998,60,4.5,11209
SSb_9z0rTGKnHD9DWP-F_A,Velma,584 Seneca Ave,40.70424540007157,-73.9104028,6,4.5,11385
kzd10IXi3dTjoPw0TDj8tA,Osteria Nando,1589 2nd Ave,40.775666,-73.953649,155,4.0,10028
FON3TceJNsTC0I0mzBwOKg,Fig & Olive,10 E 52nd St,40.75938,-73.97558,1245,3.5,10022
pFesQXdrv75mTDztZzOiVg,Angelo's Pizza,1043 2nd Ave,40.758151486516,-73.9662031084299,278,3.0,10022
HY9Ij1zQGS5R3xU1OlFENA,Piemonte Home Made Ravioli,190 Grand St,40.71947,-73.997001,87,4.5,10013
NqwwyMMXIS-JnwdDQBQT9A,Bazár Tapas Bar & Restaurant,31 W 26th St,40.744449,-73.990068,726,4.0,10010
iS5UhBr3RuXQntsAH2XMNA,Pep’s On Grand,197 Grand St,40.71897,-73.99693,29,4.5,10013
QgEre4IFSHxbUvHMe8S12g,Pinocchio Restaurant,300 East 92 St,40.781448901412105,-73.94866582944772,220,4.0,10128
wZkZmjZEJDraLJgAalnHvA,Pisticci,125 La Salle St,40.8141624,-73.960288,1012,4.0,10027
FeSynfcDT4qB2kDixHUQCA,Danji,346 W 52nd St,40.764,-73.98686,1083,4.0,10019
jMdziYLNYGDCegkFQ4lTQA,Serafina Italian Restaurant-Tribeca,95 W Broadway,40.71566,-74.0089,214,3.5,10007
R0tLL3xstwMDf27US0y-Ow,Bella Notte,104 Audubon Ave,40.842267,-73.937457,14,4.5,10032
oEjWa3AETzPQfM3S1wRiLA,Due,1396 3rd Ave,40.77466,-73.95724,92,4.0,10075
jo30o65XFWmgMJS86zFiFQ,La Mela Ristorante,167 Mulberry St,40.719907,-73.997294,856,4.0,10013
SjG7CnTIuUBIo9T4BThkGQ,Employees Only,510 Hudson St,40.73343,-74.00617,1586,4.0,10014
UB1mGugr1pvgUUP1eTNXrg,Stone Bridge Pizza & Salad,16 E 41st St,40.75225,-73.98061,320,4.5,10017
7FSuPGQTUxe-A2Km_SVTNQ,Trattoria Ora,1801 Astoria Blvd,40.7724,-73.92729,60,4.5,11102
uBGjcW-GuYy_qSvMykuISA,Pommes Frites,128 Macdougal St,40.730022,-74.000152,1098,4.5,10012
UF9F0A4e7AJHzNPG5zrHUQ,The Beast Next Door,42-51 27th St,40.74881,-73.94073,250,4.5,11101
XcfZqLrXdABSZLViQ34VTw,Chelsea Ristorante,108 8th Ave,40.7405719,-74.0017238,217,3.5,10011
-VvrQWfbkQWeuGC4L0KcfQ,Il Buco Alimentari & Vineria,53 Great Jones St,40.7264539,-73.992549,596,3.5,10012
LtBk9m1C-05nFNwD1OxcBw,Bellini,33 Peck Slip,40.70798,-74.00144,69,3.5,10038
DLjd-m5JRYL18C5grvcCVA,Tutt Appost,289 5th Ave,40.673551,-73.982335,46,4.5,11215
gkoAJruMnKVuoKVqorgFCA,TROVO NYC Thin Crust Pizza,906 3rd Ave,40.7589,-73.96875,5,4.0,10022
UgFYHin4rCb6XiGAEQ9EhQ,Song E Napule,106 Park Ave,40.82718,-74.10546,90,4.0,07070
844H9r0tRQZmxiEtjeTW0A,The Bar Room at The Modern,9 W 53rd St,40.760943924003364,-73.97682308486881,547,4.0,10019
5WMGy-lEcQPfLb3q7erS-Q,Acquista Trattoria,178-01 Union Tpke,40.7265391,-73.7898816,416,4.0,11366
vLaaNR3rTeSFEZe_nn43BA,Motorino Pizzeria Napoletana,139 Broadway,40.7104799,-73.96351,267,4.0,11211
8fr5FYU1ip0phERt1mrekg,Bohemian Restaurant,57 Great Jones St,40.72639,-73.99236,817,4.5,10012
EU47dsc_vvByG3qPIMyRog,La Locanda,432 Graham Ave,40.7178382873535,-73.9446640014648,107,4.0,11211
GqTgQEqwf3k5JyE7DHDhjw,Numero 28 Ristorante Pizzeria Bar,176 2nd Ave,40.73041,-73.98595,577,4.0,10003
U4NIkUNikNUqic2vcfh1nA,Pizzeria Panina,68-38 Forest Ave,40.70259,-73.90122,13,5.0,11385
cp7rJwmk0PeVBuGRo4JJfA,Buon'Italia,75 9th Ave,40.7424836394226,-74.0065133965729,165,4.0,10011
zWLouYsMgzcRYZzaC2NDfg,Lil' Frankie's Grocery,21 First Ave,40.72367,-73.98839,2,5.0,10003
sppl_-Hw-UMX5tlTd_0poA,Serafina Italian Restaurant Meatpacking,7 Ninth Ave,40.739633,-74.00661189520561,397,3.0,10014
geTFpY84Tp-nVTXflnxtDA,V & T Pizzeria & Restaurant,1024 Amsterdam Ave,40.80334,-73.96383,386,3.0,10025
8TEx2Za-zM_pP5MU1t8HxQ,Arte Cafe,106 W 73rd St,40.778494,-73.978869,725,3.0,10023
CXxq9vtRxogVERpjfT7sbA,Mr. Capri,33 W 8th St,40.73306,-73.99801,21,4.0,10011
YMHxv6VFriKz1KevVXl0Cw,Gallow Green,542 W 27th St,40.7508871,-74.0041249,906,3.5,10001
4j_n7nPaZrp6_lEInZaA8Q,Aita,132 Greene Ave,40.686412,-73.966629,318,4.0,11238
5V4cUVikPN8ALWXBVdjltw,Mariella,492 6th Ave,40.6662419,-73.985749,378,4.5,11215
6WQ8LXP6lppVdPFkpKYkmA,Al Coro,85 10th Ave,40.74303,-74.00779,24,3.5,10011
xqi3FnczZhm6nS7X7VjICA,The Living Room,153 West 57th St,40.76538,-73.97895,55,4.5,10019
oqA75iXtO_h8YnsLmjLk8w,Coco Pazzo,307 Spring Street,40.72602,-74.00847,141,4.0,10013
9GPRbrLHvPmLScQVw7L3KA,Donato's Restaurant and Pizza,50-22 39th Ave,40.748620275297355,-73.91300763769813,194,3.0,11377
skLDCHQcmivdGx5Qd_qBIA,Il Passatore,14 Bushwick Ave,40.71431,-73.94217,397,4.0,11211
KpBfFpjzsGvvqAzCasVW0g,Extra Virgin,259 W 4th St,40.7353962496717,-74.0031888223197,1366,3.5,10014
BXiX5-ce4NNxsw7eUDZeOg,Giovanni's Brooklyn Eats,1657 8th Ave,40.6601105,-73.9835205,544,4.0,11215
FCl5446Rovk1HRHoXpojdg,LAVO,39 E 58th St,40.762931,-73.971433,1108,3.5,10022
Sfo9WvCJGH8PPTMdNbQQzg,Mariella Pizza,965 Lexington Ave,40.76920133403351,-73.9629409622093,121,3.5,10021
srhEv1OqoK9W5JRdiMWDyw,Ayza Wine & Chocolate Bar,11 W 31st St,40.7471774721074,-73.987011312828,2083,4.0,10001
EkueKakBOazLteBREvD_qA,Serafina,2178 Broadway,40.7822587931929,-73.9805542713186,480,2.5,10024
8jxLF66U2ZOoPYHs26JK6A,Valdari NYC,214-26 41st Ave,40.7636094,-73.7700076,36,4.5,11361
ApbLKC5c3xoYn5XOJ85Y3g,Aliada,2919 Broadway,40.76254,-73.926199,445,4.0,11106
NPnWsPxOpG91GHx74S27Uw,Sottocasa Pizzeria - Harlem,227 Lenox Ave,40.8055499,-73.94746,330,4.5,10027
UM3DuPsG6UKdmsC23O_Icw,Aska,47 South 5th St,40.71226,-73.96641,141,4.5,11249
7oNuDMESKejMgJFlkQwxmQ,Avena Downtown,260 6th Ave,40.7289,-74.00216,105,4.5,10014
Fu7J2Fwoj_S6Jpg9dULzKg,Pepe Rosso To Go,149 Sullivan St,40.727127,-74.001518,386,4.0,10012
CAXzWJyV2UzYMAImM_YkWA,The Grill,99 E 52nd St,40.75832986948616,-73.9718681,241,4.0,10022
W8-g8yoLUuLq_US8NqnDhQ,Patsy's Pizzeria,1279 1st Ave,40.7658680230835,-73.9576601066113,336,3.5,10065
TqumO9YCFsKv3plJRsyP0A,The Greats Of Craft,983 1st Ave,40.7563277,-73.964548,91,4.5,10022
zOmgO8Di9Ui2bQHqSarUKg,John's of Times Square,260 W 44th St,40.75823,-73.98836,2375,4.0,10036
ufntl2yxDlAzPJ6G73eAcQ,Regional Restaurant,2607 Broadway,40.79625,-73.97094,410,3.0,10025
0frCoaUJ_XWiz1BXiHBcwg,Ceci Italian Restaurant,46 W 46th St,40.7568271422022,-73.98112088293736,320,3.5,10036
gTEBtsTbny8FjSCrnPbHqw,Zero Otto Uno Cafe,502 Washington St,40.74241,-74.02968,241,3.5,07030
xTWpl9DgIkkr5B8h8_xUpA,Lokal 83 Mediterranean Kitchen,473 Columbus Ave,40.7842696,-73.9734941,446,4.5,10024
W1pBIFhkjJwjTe2P7o57yg,Lilly's Cocktail and Wine,50 W 72nd St,40.77698,-73.9785,149,4.0,10023
AT12PEBFRWFox6l2tr7w4w,Junior's Restaurant & Bakery - 49th St.,1626 Broadway,40.76095,-73.9841299,953,4.0,10019
tsvElYYtUBAEdfK6plnxlg,Villa Mosconi,69 Macdougal St,40.72859,-74.002,216,4.0,10012
W0sXHSSpkiMEDJiBmSLNYQ,Trestle,34-02 Broadway,40.7606154,-73.9229562,514,4.5,11106
ryvBsB9FrBBZDak87iGS1w,Sea Fire Grill,158 E 48th St,40.7547045987751,-73.97222533963885,1470,4.5,10017
LhvrTgS8A03vb6cItcy0NQ,Rosetta Bakery,1928 Broadway,40.77230714185711,-73.98187193103092,28,3.0,10023
kM96WKoW1glLP94DYfFXeQ,Ciao Bella,257 7th Ave,40.74507,-73.99462,18,4.0,10001
ED2I3t5rOf81cddCsLA4tw,Terroir Tribeca,24 Harrison St,40.718804998517,-74.0099987815497,315,4.0,10013
VF3wSCRC3mE6JpBQPQXELA,Parm,248 Mulberry St,40.72303,-73.99567,859,3.5,10012
nLMJL4p7k4jNO4qLMc1wNg,Leo,123 Havemeyer St,40.7125608,-73.9567886,83,4.0,11211
8S20qj7xeM-kxDZIrF3EvA,Rustico Taverna,65-17 Fresh Pond Rd,40.70925,-73.89827,50,4.5,11385
Md80AwdvKpZXYiSCsVhegA,sLICe LIC,48-11 Vernon Blvd,40.74367,-73.95345,454,3.5,11101
kIK1DBH6ODkSouhvz-4VWA,Il Tinello,244 East 46th St,40.75265874754987,-73.97093351560888,15,5.0,10017
uMO1DfoytP6Hw5bl_z7mDQ,Cafe Michelina,423 Bloomfield St,40.74222,-74.03009,240,3.5,07030
YDHUVTkQ5ioHaPOMVwQjWQ,Dagon,2454 Broadway,40.791129,-73.973913,185,4.0,10024
txSykTj5nbwmpiVNoK_Dyg,Blue Ribbon Brasserie - SoHo,97 Sullivan St,40.725456,-74.003027,995,4.5,10012
S-BwjmHOZ--bC4nUR4-cmA,Oceana,120 W 49th St,40.7597971248568,-73.9825657859833,620,4.0,10020
4SdvTwFkW3Qx0f_3zBN_ZA,Bareli's Restaurant & Bar,219 State RT 3,40.79134259749607,-74.05492081979264,164,4.5,07094
iQTPjiskoE0jfHsoBSR1Jw,Rocco's Italian Sausages & Philly Cheese Steaks,5010 Northern Blvd,40.7527307533468,-73.9125879583358,192,4.5,11101
BQSPAXJcPw-7Gt2CCrH2Yw,Ita Italian Kitchen,682 Bergen Ave,40.7234748594999,-74.0703173,240,4.5,07304
MyVbXtvst8X7sbR7gUA_ug,Cacio E Vino,80 2nd Ave,40.726384,-73.988873,404,3.5,10003
AAQDZdKhtcX7otmOfOF9nw,Gino's Restaurant,7414 5th Ave,40.63,-74.02274,811,4.0,11209
dMrF98GlFYIPKYY5NVZHbw,Gemma,335 Bowery,40.72609,-73.99166,719,3.5,10003
wT_-RVwMoiPAL9L191Zjvg,Botte Bar,25-07 Broadway,40.7633418050593,-73.9281750915024,149,4.5,11106
6tGW6KMFB1rLGInE6sB3KA,Kaia Wine Bar,1614 3rd Ave,40.7819,-73.95197,516,4.0,10128
MeQU-nGaQvX12VXYOyzavQ,GRUPPO NYCThinCrust Pizza,98 Ave  B,40.72474,-73.98161,273,4.0,10009
wUoLj0v2cJ9T4mgebQqoZw,Giardino D'oro,5 Gold St,40.70758,-74.00715,133,4.5,10038
QV8c6gkvQfBt3QMZxCt39A,Cedric's,545 W 30th St,40.753190206996656,-74.00251611263141,21,4.0,10001
-7jjZtekUluwEtXI8avVWQ,Cucina 8 1/2,8 1/2 W 57th St,40.763325643020835,-73.97452282456308,20,3.5,10019
Sj3JYCbaEFrAqUzRrenQbg,Jora Restaurant & Bar,47-46 11th St,40.7438054,-73.9515007,894,4.5,11101
_gzXNKarTxagBp6_PkmQKw,Gotham Restaurant,12 E 12th St,40.734186,-73.99355407018984,1675,4.0,10003
qOQ4OYyBZFEA08b29koDgw,Aromi,552 Court St,40.67499,-73.99961,29,5.0,11231
bEloKDe-QVkwakAwmFKbbA,Frying Pan,207 12th Avenue,40.7521174043978,-74.0090024471283,1618,4.0,10001
9igwr3Hvr-507AiE0Mi1sw,Jupiter,620 5th Ave,40.75849412490589,-73.97764686194515,19,3.5,10020
hFmz7HH2og9hn7xNNv20yw,Il Porto,37 Washington Ave,40.6974427,-73.9675197,383,4.0,11205
_0WFGjXuenlBixOlbSlGeQ,Crown Shy,70 Pine St,40.7063449,-74.0076944,506,4.0,10005
OMp-wasWFsrOo6MYX2zw6Q,Upstairs at the Kimberly,145 E 50th St,40.75628,-73.97144,597,3.5,10022
c4PIUs7uwg9lA4ObzJ4V5Q,Barosa,62-29 Woodhaven Blvd,40.726197,-73.869795,414,3.5,11374
4nohlTsGHEDdpwYkRTt-fA,Rudy's Bar & Grill,627 9th Ave,40.76003419916213,-73.9917941990945,1169,4.0,10036
d7Asc4q2ImoPlA_BhfroTQ,Kesté Pizza & Vino,77 Fulton St,40.70937768719562,-74.00483341921786,1556,4.0,10038
Tgi-rDD3mxFi9uGybZxdaQ,Faun,606 Vanderbilt Ave,40.678271,-73.968883,215,4.0,11238
3ip8E1YiD6jiIF51-oaXiw,Tavola Della Nonna,208 W 70th St,40.77757,-73.98347,14,3.0,10023
VP3-iMnKK_TaHDuy6mxTzA,Scott's Pizza Tours,,40.750244140625,-73.9970245361328,367,5.0,10001
u5gLdI6l6zsPxL2kOYbyfw,Nizza,630 9th Ave,40.76018,-73.99113,878,3.5,10036
VHkiswx23peLA9Y8rHMo7Q,Cavalino's Restaurant,6800 Park Ave,40.791303163438904,-74.0040989,58,4.5,07093
XyE2VJzNDaiLt7ygHoe4RQ,Beebe's,28-17 Jackson Ave,40.74895360331244,-73.93875184314034,21,4.0,11101
GBjxx9AZl95cCno24Wl_QA,Fiorentina Pizzeria and Grill,852 8th Ave,40.76303528104908,-73.98536470967744,39,4.5,10019
fEig4z0y_qCMRLvW7HRuqA,Harding's,32 E 21st St,40.7393229,-73.9887163,399,4.0,10010
fRdTURZB-dROg5dIIDGDLA,Place des Fêtes,212 Greene Ave,40.68691,-73.96289,31,4.5,11238
3koQihtL0aIYzjJweMLDnw,Vini e Fritti,30 E 30th St,40.744888,-73.984227,48,4.0,10016
7dYie1rBWQVxfcGbYYTYCw,Mondani,7TH Ave,40.7622838521832,-73.9810564676794,1,5.0,10019
TOlIQbDBIHq_or6JcXx4ZQ,Sauced,331 Bedford Ave,40.7126701394003,-73.9623194526208,52,4.0,11211
0laCKZiHrdM_ZKdhTFbGgg,Sauce & Barrel,97 Washington St,40.707999,-74.0142651,560,4.0,10006
Xw7kzJP2DABsXWiT_NBn9w,Farinella Columbus,1792 Broadway,40.766891,-73.9815627,28,3.5,10019
xtfKAP7X36CCZrJm_Ta6Cg,The Consulate,519 Columbus Ave,40.78586,-73.97242,252,4.0,10024
8Yv1jmEmwaB5-rsIVIXAig,LA Traviata Pizzeria,101 W 68th St,40.77505,-73.98088,201,3.5,10023
mhhTORjUdXj-UIDjyGmhBg,Estiatorio Milos - Midtown New York,125 W 55th St,40.763541894630784,-73.97902511983438,1045,4.0,10019
v0LGazMDlyPX5ceLYpZyTg,Akdeniz Mediterranean Cuisine,43 West 46th Street,40.756948,-73.9806443,418,4.0,10036
H8qcX7MNNnC1bqE0LnIhKg,SIMÒ PIZZA,90-92 Gansevoort St,40.7392597584612,-74.0088130692187,237,4.5,10014
ZQ8E37pWd4KBgtdcWKx5IA,Anton's,570 Hudson St,40.735702,-74.005761,143,4.0,10014
mvAjuaS1Jp6dsN4a-i_Fyw,Pocket Bar NYC,455 W 48th St,40.7633645,-73.9922985,310,4.5,10019
LnMRZhKtOrW1eL04FiPYTg,Senza Gluten,206 Sullivan St,40.7290911050589,-74.00031,686,4.0,10012
M7bo7h-S4HqJfIYYghtXOQ,Blue Eyes Restaurant,525 Sinatra Dr,40.7415904281481,-74.0261629347709,366,3.5,07030
VLGmFHE4s0Sfu0piMVQa1Q,Hold Fast Kitchen & Spirits,364 W 46th St,40.76064,-73.99023,569,4.5,10036
C3UsLxRyuTM7bTKqs-R1qA,Sistina,24 E 81st St,40.7745592557331,-73.9544119255131,154,3.5,10028
d7uBG8jMKIL0kg6zqDUQmw,Daddies Pizza,450 Hudson St,40.7312323032565,-74.00651060000001,22,4.5,10014
CBsNd6iuSyiSMPw2pOzRHw,Bar Italia Madison,768 Madison Ave,40.76789,-73.96847,165,3.5,10065
GCAQmtRdNhqVit5KGJ46Qg,Estela,47 E Houston St,40.724759,-73.994728,609,4.0,10012
bL_SxpTTk8Y25mRFmhap6w,Lelabar,422 Hudson St,40.730384,-74.006554,385,4.0,10014
ADP7xR2QtV4NRY00bsPg8g,Contento,88 E 111th St,40.79624,-73.94608,85,4.5,10029
DiPCb2S9-dSTRmbqGreZDQ,Al Volo,2817 Jackson Ave,40.74874058321644,-73.9387771859765,2,3.0,11101
1xJV03v3g3oP3G5oDlWuoQ,Di An Di,68 Greenpoint Ave,40.72969,-73.95827,314,4.0,11222
wmT2ZK9Z9srX8UUR5D1q_A,Lazzara's Pizza,221 W 38th St,40.754057,-73.989497,340,3.5,10018
8ucQ3A7f6h9_PkKStYBkQA,LaLou,581 Vanderbilt Ave,40.680311,-73.967596,87,4.0,11238
SaYTVG7wHCMDBofHCgXPaA,Dutch Freds,307 W 47th St,40.760835,-73.987823,1948,4.5,10036
5UxJoqkdYrUEjArx8YITMw,Atlantic Grill,50 W 65th St,40.77250470436572,-73.98111241370289,627,3.5,10023
_DcfYjnGffQI3iP1Be0kdA,Ladurée Madison,864 Madison Ave,40.7707702252517,-73.9663760711639,2002,4.5,10021
R86cJxXMiXRyqzlF24esgg,Lexington Pizza Parlour,1590 Lexington Ave,40.789283,-73.9487429,256,4.0,10029
kMxXLrASxsbmS-ZzAaBe-A,Molly's,287 3rd Ave,40.73825,-73.98321,568,4.0,10010
79bTSZd0QArz9xmninDdtQ,Trenta Tre Pizzeria,29 East 33rd St,40.74706,-73.98311,130,4.0,10016
tV6Tgw6FS45BRHyQ207jag,Omar's Mediterranean East Midtown,154 E 55th St,40.75905,-73.969273,663,4.5,10022
wRVSvTxBp62m0UEqRUUUJQ,Dee's Wood Fired Pizza & Kitchen,107-23 Metropolitan Ave,40.709782,-73.8452595,556,4.0,11375
JnFV_qz7uWbLTY80K89J7Q,Emmett's,50 Macdougal St,40.727303,-74.00243,591,4.0,10012
XWNamjD2mSpk56B6z1HT9w,Laico's,67 Terhune Ave,40.703212,-74.095046,259,4.0,07305
SpyQHasbnU5YkOR6PI4sNQ,Margherita NYC,197 Grand St,40.7189865112305,-73.9969329833984,317,4.0,10013
fFkqEyupjc5x2iJQIPcpLw,Ruffian,125 E 7th St,40.7264,-73.98411,265,4.5,10009
4SN0mwVSzVkFTpb_aH8cgg,La Cava,939 2nd Ave,40.7548159435015,-73.9688132098044,268,3.5,10022
CcxreLJbZsO6Z775-hMWpw,St Tropez West Village,304 W 4th St,40.73704,-74.00386,257,4.5,10014
eTneVbjPKdo4gD9HfkDGdA,Santa Panza,1079 Broadway,40.6947,-73.93068,222,4.5,11221
4aF0F8w7yXX9o5_QFky_ig,Celestine,1 John St,40.704676,-73.987975,273,4.0,11201
BpdlX1j1-FbOC1dWIrZv4w,Bella Blu,967 Lexington Ave,40.769207,-73.962791,287,3.5,10021
rHYwqiWTFs-oOKikxY7kag,Zia Maria-Little Italy,138 Mulberry St,40.71861,-73.99754,346,4.0,10013
851S-NEGY5Z1BkXD1fI5UQ,La Bella Valentina,319W 51st St,40.763483431616194,-73.98653200219222,26,2.5,10019
dMhRafXdr765DHe0k-QfaQ,ABC Kitchen,35 E 18th St,40.73775008339078,-73.98963413652181,3162,4.0,10003
9BzRiWO6PSdR-l3dzCm3VA,Buceo 95,201 W 95th St,40.793613,-73.971112,475,4.0,10025
dWc0ijADaD6ZdclJ5LqQdg,Paola's Restaurant,1361 Lexington Ave,40.78221468700567,-73.9534524063586,204,3.5,10128
Y3xDbSHXs6apMA4JLGJZ1Q,Sac's Place,3511 35th Ave,40.7566495,-73.9250116,554,4.0,11106
G77Q6kU-7qRefColCRTS0w,Roberta's,6 Grand St,40.71618788546057,-73.96651754323669,81,3.5,11249
yH6t1JWcwkdWG4CS5KPvow,Adrienne's Pizzabar,54 Stone St,40.7043362,-74.0101733,1821,4.0,10004
wp5BpfUi9Aa4T0Gk0bnhag,Altesi Downtown,200 Spring St,40.72511,-74.00333,119,4.0,10012
i9UMc9gLeORtCLd-OoGgYg,Lions & Tigers & Squares Detroit Pizza,268 W 23rd St,40.74506,-73.99834,536,4.0,10011
bB5b8cj0yWNJvmmLiQeWGA,Piccolo Trattoria,455 Main St,40.7591676767848,-73.9525466887989,116,3.0,10044
kA_rchd6Q-LzzrVSh05HxQ,Gaia Italian Cafe Shop,226 E 3rd St,40.722152824597906,-73.98218834110497,8,4.5,10009
dL_kiFyyFM-3_JYRoEzchA,Nonnas 1977,41-02 Astoria Blvd,40.76851,-73.90997,173,4.5,11103
ZhjRaJkfCIVopvamUzrEsA,San Gennaro Trattoria Restaurant Bar,2329 Arthur Ave,40.8540465225016,-73.8889484480023,213,4.0,10458
CAZDrA29lZ3uXE8igSbv2g,La Vera Pizzeria & Restaurant,922 2nd Ave,40.75408,-73.96889,161,3.0,10017
lSJD2Gcf9LjJqpLE7pUlWQ,Russian Samovar Restaurant and Piano Bar,256 W 52nd St,40.7632,-73.98469,541,4.0,10019
U8Ljrx-w5otdMZNFhw5piw,La Villa,261 5th Ave,40.6743319055498,-73.9816949398812,586,4.0,11215
H5d3Lgkk8onZ6tq0mUyvig,Panello,720 Monroe St,40.747536,-74.037906,217,4.0,07030
unjqnjSjpdGyP2Gqg0qJVA,marcellino tratoria & pizzeria,178 Mulberry St,40.72066,-73.99666,149,4.0,10012
p-BHJdQ57eM-WlKTP7B44w,Antika,36-08 30th Ave,40.76466,-73.91722,476,3.5,11106
-neJTu9rpYM8-wjwA9WoIA,Lex Restaurant,1370 Lexington Ave,40.7825297,-73.9535605,126,4.0,10128
DLRbxg74oWNPQJdbSkTDxQ,Suprema Provisions,305 Bleecker St,40.7326925,-74.0036155,353,4.0,10014
I8wk0uwL6R0RhSprSlPvNw,Roman Nose,125 Newark Ave,40.7200279,-74.0433197,801,3.5,07302
Nsj44YGw_ipk4TUrYUL_nw,Urbani Truffles Usa,10 W End Ave,40.77208019381843,-73.98985113803192,14,4.0,10023
cg7IxNN5wyrXVP5tkCaZRg,Miss Ada,184 Dekalb Ave,40.689436,-73.9723809,411,4.5,11205
6KcS6hc2j4kJi2XTGxC1eg,Bodrum,584 Amsterdam Ave,40.78935,-73.97411,472,4.0,10024
z0lX40tXQxOHlU26VhLATA,American Brass,2-01 50th Ave,40.74408388423463,-73.95843344047545,308,4.5,11101
gvul1x9MMawVzStJpfGoLA,San Pietro,18 E 54th St,40.760481,-73.974455,90,3.5,10022
bppjJw5J8Ht6WgGp1bzPtQ,Porto Leggero,185 Hudson St,40.7187593,-74.0349084,277,4.0,07311
A4_L8PmSH6ZsSiIFLS-_2w,Cozzolino Nyc,24-26 47th St,40.76729,-73.90487,5,4.0,11103
TybGiZNOipp1R1-u2k3ogA,Pomodoro,795 Abbott Blvd,40.8310841023922,-73.9826329797506,220,4.0,07024
kH5RMIaFmd-bekCIhOcqDw,Landmark Tavern,626 11th Ave,40.763156,-73.996253,335,4.0,10036
IcEtg4yaHoe9To7Db1irBA,Made In New York Pizza,421 Amsterdam Ave,40.783841,-73.977569,492,4.5,10024
SJwnDYp53mHEbeZK2nXnbg,Cipriani,110 E 42nd St,40.75163147071506,-73.97694370763168,129,3.5,10017
l-oj1yA5liiFEEwoi-1ELA,Bottega Restaurant,1331 2nd Ave,40.7677346,-73.9593295,160,3.5,10021
TWVmYLuG-w6fsrzKpmX6XQ,Cucina 8 1/2,9 W 57th St,40.76364835594344,-73.97506128341489,481,3.5,10019
tRZcEKBNNwiZw1_Px_POag,Smith & Mills,71 N Moore St,40.72018,-74.00991,301,4.0,10013
5QgBCrAbXbM1ORiqZDrBPQ,Cha-An,230 E 9th St,40.72947,-73.98813,1930,4.0,10003
Tias1_QRB5L-gzoSNNhOMA,Petrarca Cucina E Vino,34 White St,40.7189,-74.00458,204,4.0,10013
k32wIrhi24BtUqpuLn_6CQ,Great Hall Balcony Bar,1000 5th Ave,40.779170284015045,-73.96293033351162,20,3.5,10028
u2Uw0v1Rqepv0X6nOyICxA,Anassa Taverna NYC,200 E 60th St,40.762037,-73.9660633,390,3.5,10022
EviCtput3aPEbHEVS4Ahuw,Felice Montague,84 Montague St,40.69517,-73.9961,52,4.0,11201
lUQR6cZlHHKXOksH5xOTqA,Joe Allen,326 W 46th St,40.76005,-73.98913,442,4.0,10036
4zw8vEJNc4mcHh2ARzj2gw,Osteria Brooklyn,458 Myrtle Ave,40.693154,-73.967177,184,4.5,11205
Hh9glEE_xDYT_pPUsRPXlA,Blend on the Water,45-40 Center Blvd,40.748216,-73.956973,3740,4.0,11109
8XHbZIKDQbXhyKIGiukVeQ,Boucherie Union Square,225 Park Ave S,40.73725824850519,-73.9882252705524,1346,4.5,10003
XInU-DVHFwunAnsOL8bOrA,3 Giovani,548 Laguardia Pl,40.72907,-73.99839,189,3.5,10012
DhBhEWMVLDxYF14a1znUvA,Lighthouse,145 Borinquen Pl,40.710871611836815,-73.95371897659477,294,4.0,11211
zxILWp8GcMOKSb9iYn55XA,ALLORA 5th Ave ,292 5th Ave,40.74633,-73.98633,6,5.0,10001
z-y9GDoRr1S9Ma6b2n0A4A,Enoteca Maria,27 Hyatt St,40.642,-74.07729,423,4.0,10301
n-szxTmEg8UWhiadbvz_Ug,Russo Mozzarella & Pasta,344 E 11th St,40.729401179008,-73.984412681264,118,4.5,10003
kmcgUxWhwlbmC-FAMTEF2g,Cafe d’Alsace,1703 2nd Ave,40.77942,-73.95084,1339,4.0,10128
pNYcGGAj4AYaExlmrEmfUw,Harry's,1 Hanover Sq,40.704512,-74.009834,795,4.0,10004
V3dHB6xAdd8_dH7t481PAw,Steak Frites Bistro,496 9th Ave,40.755591,-73.994449,37,4.5,10018
O6RBNHBleB0mCb2dAanxCw,Casa Lever,390 Park Ave,40.759741,-73.972956,247,4.0,10022
mCLPr3PUwsO_zDehWeahbg,La Fiamma,440 Harrison Ave,40.74706,-74.15431,167,4.5,07029
g0ofwNfcNf5XLzdOtZYm_A,Matthew's Italian Restaurant,1131 Bloomfield Ave,40.8390353933391,-74.1616866576499,563,4.5,07012
2ocEotgscaDAEr6Ok2_XAA,Pizzette,191 Graham Ave,40.70858,-73.94357,67,4.5,11206
EaNRl3vlDOsNF-gkCR5mBA,La Sirène-UWS,416 Amsterdam Ave,40.7838,-73.97806,118,4.0,10024
AbNXFnI4OlWZvsQLGKf64w,Dino,222 Dekalb Ave,40.68941,-73.97047,335,3.5,11205
QrwObD0lKQsrBlDZzgzewA,D'Antan|vino Naturale & cucina Italiana,858 Bergen St,40.6772982,-73.95882,61,4.5,11238
efgclSozdzhy6tQ2nrAUdA,Maggiano's Little Italy,70 Riverside Sq Mall,40.90759133,-74.03096883,580,3.5,07601
Do-Y5ZJO7NW04kjqgWpHHw,Borgatti's Ravioli & Egg Noodles,632 E 187th St,40.8550100773573,-73.8865891098976,176,5.0,10458
VLpXSDyK5yhhfFOs9OM20A,Famous Famiglia Pizzeria,1248 Lexington Ave,40.778337,-73.956623,99,4.0,10028
8dKgnx7EVuVVO6D40LTwjw,Vino e Grano at Eataly NYC Downtown,101 Liberty St,40.7096522,-74.0112896,16,3.5,10006
-WdZvgWBMYg5fSuav78ZRA,Il Miglio Brick Oven & Italian Restaurant,11-03 36th Ave,40.761189,-73.93967,36,4.0,11106
Tt9Mkrgd5Zj_ZJEeU0L7Gg,Bocado Cafe,1293 Lexington Ave,40.7802514169278,-73.9549089244757,547,3.5,10128
fSQ3CCtFSJ2S8VXDi02-3Q,Cafe Luxembourg,200 W 70th St,40.77741,-73.98312,600,4.0,10023
Xd_l7jtUAZZAAvK8-mI2Jw,The Smith,1150 Broadway,40.74424,-73.98878,1302,4.0,10010
uboO7T3XSnl8iq0uQWhMXA,Altro Paradiso,234 Spring St,40.72549,-74.00489,229,3.5,10013
5DoCTugT9AF-P3VspApsyQ,Aita Trattoria,798A Franklin Ave,40.6712095108944,-73.9579255586597,238,4.0,11238
HhY7QDRu7EwXTDY4WT1wSA,Serra by Birreria at Eataly Flatiron,200 5th Ave,40.74202728870354,-73.98990524616988,1867,3.0,10010
lhLk3IWpFtEkziTLnGkvVA,Ainslie,199 Bowery,40.72104,-73.99326,15,4.0,10002
ItyOhaRY5VeNAdK2liPEBg,Maria Restaurant,11 Huguenot St,40.9143109,-73.7736016,156,4.0,10801
dE_NbpR8bFmZVKNSPFZfUA,Tramezzini NYC,309 E Houston,40.7211848351606,-73.983472726423,153,4.5,10002
hf6J_NlHOKWUJ4BNib880g,5C Cafe,68 Ave C,40.72268,-73.9796559,28,5.0,10009
9w3zIx0-n7qPLQynU8saHA,AOC East,1590 First Ave,40.77469,-73.95075,197,4.0,10028
ieXKc6S3WlEiVkyxgaF9Ig,Tempura Matsui,222 E 39th St,40.74819,-73.97467,183,4.5,10016
tBRu4b9oGJ4SiLysD4hT_g,Angelina's,928 Broadway,40.6792,-74.10496,74,4.0,07002
jNwI69XCHnPfxlnpHXO0sg,Lantern's Keep,49 W 44th St,40.7558543624672,-73.9820153558197,208,4.0,10036
FelC65I3j7s7mM2rnePN3Q,Savelli,195 Smith St,40.685074,-73.991272,64,4.5,11201
x6u4DehJyvFPJKOOSjhPdg,Villa Erasmo,69-61 Juniper Blvd S,40.71685,-73.88626,80,4.0,11379
E9NMNWvV70HV5gB369N0EA,Nerai,55 E 54th St,40.760313566070415,-73.97302370552254,668,4.5,10022
hKdvsbuQRtjajWYwjaoOQw,Tavern on the Green,67 Central Park W,40.772194,-73.9776,1848,3.5,10023
Y98a2y3r77l7S4wVS4Vqzg,Vegoist,35-43 37th St,40.75447,-73.92456,282,4.0,11101
jSrDUsCXkKqbBQ9sqDLFcg,Magna Restaurant,3525 Farrington St,40.76371,-73.831117,157,4.0,11354
aHzzAmjZBUXJ3EHxFdRKOQ,Carve,760 8th Ave,40.7602042287575,-73.9873568460327,451,3.5,10036
vTn3ww550Rnhz9naIxtjww,Brunetti Pizza,626 Hudson St,40.73829,-74.0054,347,4.0,10014
4kzN5nhvOyHyJaeviWTpHQ,Mike's Bistro,127 E 54th St,40.759407,-73.971051,120,4.5,10022
8qT2fQh1qVhCVtAODADwRw,I Gemelli Ristorante,268 Huyler St,40.87057,-74.04861,237,4.5,07606
-P7qAIG1wr_gXW3nzIq5TA,Flex Mussels,1431 3rd Ave,40.77542,-73.95624,1120,4.0,10028
xRiLLXjeM2wOvVTYJH2__A,Barboncino Pizza & Bar,781 Franklin Ave,40.67206,-73.95717,1109,4.5,11238
zHtCLIChaKxqFXfMZQHkMQ,Speedy Romeo,376 Classon Ave,40.6875154792236,-73.959874469611,666,4.0,11238
jzEaiiRa3497HWdf4QKHIA,La Pizza & La Pasta at Eataly NYC Downtown,4 World Trade Ctr,40.7102419339859,-74.0124460392414,181,3.0,10006
c1kKAH9XMPNeaBhvnIP0FQ,Trinity Place,115 Broadway,40.708865,-74.01117,407,4.0,10006
F0MuzanyO6YEen8VtP5LOg,Pennsylvania 6 NYC,132 W 31st St,40.7483655239542,-73.9907944748688,608,4.0,10001
9Zv7Xu380q2rzPSLEXX0Xg,Joe's Restaurant,6611 Forest Ave,40.707518,-73.903177,247,4.0,11385
76y4aMBY0lT6zfJLy2EH-Q,Le Zie,172 7th Ave,40.74246,-73.9970699,344,3.5,10011
nvisU3jrXgA7xL5nEt3iXA,Don Giovanni Ristorante,214 10th Ave,40.7472138000271,-74.0042828600478,369,3.5,10011
7OwoncdLdUlwh6JMwSz_GQ,The Top of the Standard,848 Washington St,40.740828,-74.008074,520,4.0,10014
z4CzSOnngC2RaTEC_BgUWA,Cataldo's Restaurant,554 Vanderbilt Ave,40.6800799,-73.96832,259,4.0,11238
R7K3u2hcZEAI8ADqGb2LLQ,Bar Pisellino,52 Grove St,40.733,-74.00347,118,3.5,10014
35TekDVXNNnWWz4tDvg-_w,Rosticeria Da Gigi,916 Washington St,40.7478555804946,-74.0280557568127,242,4.0,07030
pDwhlX9jNBGnjvyGR9jYWQ,Gabriel Kreuther,41 W 42nd St,40.754546,-73.982556,593,4.5,10036
nTt5cLJVcmBdM640izladw,Carmentas Italian Specialties,50 Starr St,40.70114,-73.92677,139,4.5,11221
6TCMYUyT45aj-89fYJOiyw,Porta,135 Newark Ave,40.7200699,-74.0437622,1210,3.0,07302
MaoCNdHni6MLjM9iYQqHcg,Frida Midtown,214 E 52nd St,40.756610894855896,-73.96919065816803,117,4.5,10022
8qSOz7oTPUUCafsMOBBNEQ,Pisillo Italian Panini,97 Nassau St,40.710558,-74.007594,705,4.5,10038
sGqKDtizXj3tg9jnAc9FeQ,K Rico Steakhouse,772 9th Ave,40.764345,-73.98798,698,4.5,10019
7Lpa3gpQHdkHRhldaZoE_w,Nena's Pizzeria & Restaurant,4914 30th Ave,40.760114,-73.90744,1,5.0,11377
cD_U5PL1tTl_igFPmr_T3A,C Di Palo,151 Mott St,40.71942,-73.99644,31,5.0,10013
iPc-zPgcpgeSo76xl5Jbpw,The Maze,32 W 32nd St,40.747846,-73.9872499,677,4.0,10001
IZ9-5z45wc3Oh_jlnX_Kcg,Giuseppina's,691 6th Ave,40.6603430973463,-73.9907741546631,348,4.5,11215
aI39yRQqpTd1VuKqS-lwig,Sofia,36 Engle St,40.894168,-73.97257,674,4.0,07631
enT7NJ7tLMvUMCWQcsUonw,Mémé Mediterranean,581 Hudson St,40.736412,-74.00616,678,4.0,10014
wvn-FO-tY9_iWmA_OgMvEA,Frank's Trattoria,371 1st Ave,40.73612,-73.979473,172,3.5,10010
Ubjy_YwMiU69kdSaXC9bgw,Madison & Vine,299 Madison Ave,40.75218,-73.97954,212,3.0,10017
qaKB8CgaWhlBTk_t7YOQ_w,North River Lobster Co,Pier 81 W 41st St,40.761968685867,-74.0028237923088,615,3.5,10036
X-0X9nR9tnCTW3bXJzA09Q,Bice Cucina SoHo,15 Watts St,40.72331516224319,-74.00369232044905,20,4.5,10013
KogxM0x2p9auUyU4h4CAqQ,Cremini's - Aperitivo & Kitchen,521 Court St,40.674968,-73.999242,57,5.0,11231
yzOew6wou7fu51dyn6pNeQ,Macosa Trattoria,310 Tompkins Ave,40.6872641,-73.9449562,49,4.5,11216
HrdIdeDZBTUdyEdSTPG1zg,Jack's Wife Freda,50 Carmine St,40.729826,-74.003516,958,4.0,10014
b3lYtaBR1SlmH7NNDWi-vg,The Landing,1 Pennsylvania Plz,40.7511917,-73.992165,14,4.5,10119
4wDWxcGMJEgriP-6ObJsqg,Jose Luis Mediterranean Cuisine,186 Ave B,40.727861,-73.979339,175,5.0,10009
OUJkCwzbtw16_KZAzYgE5w,Grimaldi's,656 6th Ave,40.7412157,-73.9938935,828,3.5,10010
N-gJbfzl24IbMIuqvDBE-Q,Bella Trattoria E Pizzeria ,6717 Bergenline Ave,40.79447,-74.0123,11,4.5,07093
MbwsCB7echBlVwzfJ_9c9g,Old Tbilisi Garden,174 Bleecker St,40.7287707,-74.0008161,526,4.0,10012
0LKC_M1bumyOcgWgbH9OdQ,Crave Fishbar,428 Amsterdam Ave,40.78428,-73.97772,353,4.0,10024
olMUqifw-QlikZ9OC2aN6Q,Piccolino's,552 Broadway,40.66577,-74.1163399,55,4.0,07002
hDgpiXE5_d4Is1sJ5kUBQg,Wine 30,41 E 30th St,40.74492841946161,-73.9837861,828,4.0,10016
1HPdyg0OLRkjHeixVmbu0Q,Cocina Del Sur,40 W 38th St,40.7515296936035,-73.9846572875977,150,4.0,10018
PGpCaNkB1meojnbgRmb2gQ,Buena Vista Restaurant & Bar,536 9th Ave,40.75686,-73.99356,333,4.5,10018
